<?xml version="1.0" encoding="utf-8"?><stations lastUpdate="1590575820634" version="2.0"><station><id>1</id><name>River Street , Clerkenwell</name><terminalName>001023</terminalName><lat>51.52916347</lat><long>-0.109970527</long><installed>true</installed><locked>false</locked><installDate>1278947280000</installDate><removalDate></removalDate><temporary>false</temporary><nbBikes>4</nbBikes><nbEmptyDocks>15</nbEmptyDocks><nbDocks>19</nbDocks></station><station><id>2</id><name>Phillimore Gardens, Kensington</name><terminalName>001018</terminalName><lat>51.49960695</lat><long>-0.197574246</long><installed>true</installed><locked>false</locked><installDate>1278585780000</installDate><removalDate></removalDate><temporary>false</temporary><nbBikes>7</nbBikes><nbEmptyDocks>27</nbEmptyDocks><nbDocks>37</nbDocks></station><station><id>3</id><name>Christopher Street, Liverpool Street</name><terminalName>001012</terminalName><lat>51.52128377</lat><long>-0.084605692</long><installed>true</installed><locked>false</locked><installDate>1278240360000</installDate><removalDate></removalDate><temporary>false</temporary><nbBikes>6</nbBikes><nbEmptyDocks>26</nbEmptyDocks><nbDocks>32</nbDocks></station><station><id>4</id><name>St. Chad's Street, King's Cross</name><terminalName>001013</terminalName><lat>51.53005939</lat><long>-0.120973687</long><installed>true</installed><locked>false</locked><installDate>1278241080000</installDate><removalDate></removalDate><temporary>false</temporary><nbBikes>12</nbBikes><nbEmptyDocks>11</nbEmptyDocks><nbDocks>23</nbDocks></station><station><id>5</id><name>Sedding Street, Sloane Square</name><terminalName>003420</terminalName><lat>51.49313</lat><long>-0.156876</long><installed>true</installed><locked>false</locked><installDate>1278241440000</installDate><removalDate></removalDate><temporary>false</temporary><nbBikes>5</nbBikes><nbEmptyDocks>20</nbEmptyDocks><nbDocks>27</nbDocks></station><station><id>6</id><name>Broadcasting House, Marylebone</name><terminalName>003424</terminalName><lat>51.51811784</lat><long>-0.144228881</long><installed>true</installed><locked>false</locked><installDate>1278241680000</installDate><removalDate></removalDate><temporary>false</temporary><nbBikes>8</nbBikes><nbEmptyDocks>10</nbEmptyDocks><nbDocks>18</nbDocks></station><station><id>7</id><name>Charlbert Street, St. John's Wood</name><terminalName>003422</terminalName><lat>51.53430039</lat><long>-0.1680743</long><installed>true</installed><locked>false</locked><installDate>1278241800000</installDate><removalDate></removalDate><temporary>false</temporary><nbBikes>6</nbBikes><nbEmptyDocks>10</nbEmptyDocks><nbDocks>16</nbDocks></station><station><id>8</id><name>Maida Vale, Maida Vale</name><terminalName>003423</terminalName><lat>51.529857</lat><long>-0.18348604</long><installed>true</installed><locked>false</locked><installDate>1540984560000</installDate><removalDate></removalDate><temporary>false</temporary><nbBikes>7</nbBikes><nbEmptyDocks>31</nbEmptyDocks><nbDocks>39</nbDocks></station><station><id>9</id><name>New Globe Walk, Bankside</name><terminalName>001015</terminalName><lat>51.5073853</lat><long>-0.096440751</long><installed>true</installed><locked>false</locked><installDate>1278242340000</installDate><removalDate></removalDate><temporary>false</temporary><nbBikes>2</nbBikes><nbEmptyDocks>17</nbEmptyDocks><nbDocks>19</nbDocks></station><station><id>10</id><name>Park Street, Bankside</name><terminalName>001024</terminalName><lat>51.50597426</lat><long>-0.092754157</long><installed>true</installed><locked>false</locked><installDate>1278242460000</installDate><removalDate></removalDate><temporary>false</temporary><nbBikes>6</nbBikes><nbEmptyDocks>12</nbEmptyDocks><nbDocks>18</nbDocks></station><station><id>11</id><name>Brunswick Square, Bloomsbury</name><terminalName>001022</terminalName><lat>51.52395143</lat><long>-0.122502346</long><installed>true</installed><locked>false</locked><installDate>1278340440000</installDate><removalDate></removalDate><temporary>false</temporary><nbBikes>0</nbBikes><nbEmptyDocks>23</nbEmptyDocks><nbDocks>24</nbDocks></station><station><id>12</id><name>Malet Street, Bloomsbury</name><terminalName>000980</terminalName><lat>51.52168078</lat><long>-0.130431727</long><installed>true</installed><locked>false</locked><installDate>1278340620000</installDate><removalDate></removalDate><temporary>false</temporary><nbBikes>6</nbBikes><nbEmptyDocks>43</nbEmptyDocks><nbDocks>49</nbDocks></station><station><id>13</id><name>Scala Street, Fitzrovia</name><terminalName>000970</terminalName><lat>51.51991453</lat><long>-0.136039674</long><installed>true</installed><locked>false</locked><installDate>1278340800000</installDate><removalDate></removalDate><temporary>false</temporary><nbBikes>9</nbBikes><nbEmptyDocks>12</nbEmptyDocks><nbDocks>21</nbDocks></station><station><id>14</id><name>Belgrove Street , King's Cross</name><terminalName>001011</terminalName><lat>51.52994371</lat><long>-0.123616824</long><installed>true</installed><locked>false</locked><installDate>1278341040000</installDate><removalDate></removalDate><temporary>false</temporary><nbBikes>22</nbBikes><nbEmptyDocks>25</nbEmptyDocks><nbDocks>48</nbDocks></station><station><id>15</id><name>Great Russell Street, Bloomsbury</name><terminalName>000988</terminalName><lat>51.51772703</lat><long>-0.127854211</long><installed>true</installed><locked>false</locked><installDate>1278341220000</installDate><removalDate></removalDate><temporary>false</temporary><nbBikes>6</nbBikes><nbEmptyDocks>19</nbEmptyDocks><nbDocks>26</nbDocks></station><station><id>16</id><name>Cartwright Gardens , Bloomsbury</name><terminalName>001010</terminalName><lat>51.52635795</lat><long>-0.125979294</long><installed>true</installed><locked>false</locked><installDate>1278341400000</installDate><removalDate></removalDate><temporary>false</temporary><nbBikes>2</nbBikes><nbEmptyDocks>20</nbEmptyDocks><nbDocks>22</nbDocks></station><station><id>17</id><name>Hatton Wall, Holborn</name><terminalName>001008</terminalName><lat>51.5216612</lat><long>-0.109006325</long><installed>true</installed><locked>false</locked><installDate>1278423720000</installDate><removalDate></removalDate><temporary>false</temporary><nbBikes>3</nbBikes><nbEmptyDocks>23</nbEmptyDocks><nbDocks>26</nbDocks></station><station><id>18</id><name>Drury Lane, Covent Garden</name><terminalName>001007</terminalName><lat>51.51477076</lat><long>-0.12221963</long><installed>true</installed><locked>false</locked><installDate>1278426300000</installDate><removalDate></removalDate><temporary>false</temporary><nbBikes>8</nbBikes><nbEmptyDocks>19</nbEmptyDocks><nbDocks>27</nbDocks></station><station><id>19</id><name>Taviton Street, Bloomsbury</name><terminalName>001009</terminalName><lat>51.52505093</lat><long>-0.131161087</long><installed>true</installed><locked>false</locked><installDate>1278426720000</installDate><removalDate></removalDate><temporary>false</temporary><nbBikes>4</nbBikes><nbEmptyDocks>26</nbEmptyDocks><nbDocks>30</nbDocks></station><station><id>20</id><name>Drummond Street , Euston</name><terminalName>000993</terminalName><lat>51.527326</lat><long>-0.13605286</long><installed>true</installed><locked>false</locked><installDate>1544659200000</installDate><removalDate></removalDate><temporary>false</temporary><nbBikes>18</nbBikes><nbEmptyDocks>10</nbEmptyDocks><nbDocks>28</nbDocks></station><station><id>21</id><name>Hampstead Road (Cartmel), Euston</name><terminalName>003426</terminalName><lat>51.53007835</lat><long>-0.13884627</long><installed>true</installed><locked>false</locked><installDate>1278427740000</installDate><removalDate></removalDate><temporary>false</temporary><nbBikes>1</nbBikes><nbEmptyDocks>15</nbEmptyDocks><nbDocks>16</nbDocks></station><station><id>22</id><name>Northington Street , Holborn</name><terminalName>003425</terminalName><lat>51.5222641</lat><long>-0.114079481</long><installed>true</installed><locked>false</locked><installDate>1278428880000</installDate><removalDate></removalDate><temporary>false</temporary><nbBikes>3</nbBikes><nbEmptyDocks>16</nbEmptyDocks><nbDocks>19</nbDocks></station><station><id>23</id><name>Red Lion Square, Holborn</name><terminalName>003421</terminalName><lat>51.51943538</lat><long>-0.119123345</long><installed>true</installed><locked>false</locked><installDate>1278429300000</installDate><removalDate></removalDate><temporary>false</temporary><nbBikes>0</nbBikes><nbEmptyDocks>16</nbEmptyDocks><nbDocks>16</nbDocks></station><station><id>24</id><name>British Museum, Bloomsbury</name><terminalName>000981</terminalName><lat>51.51908011</lat><long>-0.124678402</long><installed>true</installed><locked>false</locked><installDate>1278430140000</installDate><removalDate></removalDate><temporary>false</temporary><nbBikes>2</nbBikes><nbEmptyDocks>33</nbEmptyDocks><nbDocks>35</nbDocks></station><station><id>25</id><name>Doric Way , Somers Town</name><terminalName>001004</terminalName><lat>51.5288338</lat><long>-0.132250369</long><installed>true</installed><locked>false</locked><installDate>1278433200000</installDate><removalDate></removalDate><temporary>false</temporary><nbBikes>19</nbBikes><nbEmptyDocks>30</nbEmptyDocks><nbDocks>50</nbDocks></station><station><id>26</id><name>Ampton Street , Clerkenwell</name><terminalName>001019</terminalName><lat>51.52728093</lat><long>-0.11829517</long><installed>true</installed><locked>false</locked><installDate>1278434160000</installDate><removalDate></removalDate><temporary>false</temporary><nbBikes>6</nbBikes><nbEmptyDocks>15</nbEmptyDocks><nbDocks>21</nbDocks></station><station><id>27</id><name>Bouverie Street, Temple</name><terminalName>001021</terminalName><lat>51.51382102</lat><long>-0.107927706</long><installed>true</installed><locked>false</locked><installDate>1278500160000</installDate><removalDate></removalDate><temporary>false</temporary><nbBikes>4</nbBikes><nbEmptyDocks>29</nbEmptyDocks><nbDocks>33</nbDocks></station><station><id>28</id><name>Bolsover Street, Fitzrovia</name><terminalName>001025</terminalName><lat>51.52351808</lat><long>-0.143613641</long><installed>true</installed><locked>false</locked><installDate>1278500460000</installDate><removalDate></removalDate><temporary>false</temporary><nbBikes>7</nbBikes><nbEmptyDocks>10</nbEmptyDocks><nbDocks>19</nbDocks></station><station><id>29</id><name>Hereford Road, Bayswater</name><terminalName>001016</terminalName><lat>51.513735</lat><long>-0.193487</long><installed>true</installed><locked>false</locked><installDate>1278501180000</installDate><removalDate></removalDate><temporary>false</temporary><nbBikes>7</nbBikes><nbEmptyDocks>15</nbEmptyDocks><nbDocks>22</nbDocks></station><station><id>30</id><name>Windsor Terrace, Hoxton</name><terminalName>001029</terminalName><lat>51.52915444</lat><long>-0.093421615</long><installed>true</installed><locked>false</locked><installDate>1278501420000</installDate><removalDate></removalDate><temporary>false</temporary><nbBikes>13</nbBikes><nbEmptyDocks>11</nbEmptyDocks><nbDocks>24</nbDocks></station><station><id>31</id><name>Fanshaw Street, Hoxton</name><terminalName>003427</terminalName><lat>51.52953709</lat><long>-0.083353323</long><installed>true</installed><locked>false</locked><installDate>1278501600000</installDate><removalDate></removalDate><temporary>false</temporary><nbBikes>14</nbBikes><nbEmptyDocks>21</nbEmptyDocks><nbDocks>36</nbDocks></station><station><id>32</id><name>Leonard Circus , Shoreditch</name><terminalName>001020</terminalName><lat>51.52469624</lat><long>-0.084439283</long><installed>true</installed><locked>false</locked><installDate>1278506700000</installDate><removalDate></removalDate><temporary>false</temporary><nbBikes>3</nbBikes><nbEmptyDocks>40</nbEmptyDocks><nbDocks>43</nbDocks></station><station><id>33</id><name>Central House, Aldgate</name><terminalName>003430</terminalName><lat>51.5156</lat><long>-0.070056</long><installed>true</installed><locked>false</locked><installDate>1278506940000</installDate><removalDate></removalDate><temporary>false</temporary><nbBikes>5</nbBikes><nbEmptyDocks>12</nbEmptyDocks><nbDocks>18</nbDocks></station><station><id>34</id><name>Pancras Road, King's Cross</name><terminalName>003428</terminalName><lat>51.5341235</lat><long>-0.129386874</long><installed>true</installed><locked>false</locked><installDate>1278507060000</installDate><removalDate></removalDate><temporary>false</temporary><nbBikes>1</nbBikes><nbEmptyDocks>15</nbEmptyDocks><nbDocks>16</nbDocks></station><station><id>36</id><name>De Vere Gardens, Kensington</name><terminalName>003446</terminalName><lat>51.50173726</lat><long>-0.184980612</long><installed>true</installed><locked>false</locked><installDate>1278519900000</installDate><removalDate></removalDate><temporary>false</temporary><nbBikes>12</nbBikes><nbEmptyDocks>15</nbEmptyDocks><nbDocks>28</nbDocks></station><station><id>37</id><name>Penywern Road, Earl's Court</name><terminalName>003444</terminalName><lat>51.49159394</lat><long>-0.192369256</long><installed>true</installed><locked>false</locked><installDate>1278520020000</installDate><removalDate></removalDate><temporary>false</temporary><nbBikes>8</nbBikes><nbEmptyDocks>9</nbEmptyDocks><nbDocks>17</nbDocks></station><station><id>38</id><name>Abingdon Villas, Kensington</name><terminalName>003442</terminalName><lat>51.4973875</lat><long>-0.197245586</long><installed>true</installed><locked>false</locked><installDate>1278584880000</installDate><removalDate></removalDate><temporary>false</temporary><nbBikes>9</nbBikes><nbEmptyDocks>8</nbEmptyDocks><nbDocks>17</nbDocks></station><station><id>39</id><name>Shoreditch High Street, Shoreditch</name><terminalName>003445</terminalName><lat>51.5263778</lat><long>-0.078130921</long><installed>true</installed><locked>false</locked><installDate>1278601740000</installDate><removalDate></removalDate><temporary>false</temporary><nbBikes>19</nbBikes><nbEmptyDocks>22</nbEmptyDocks><nbDocks>41</nbDocks></station><station><id>40</id><name>Commercial Street, Shoreditch</name><terminalName>001083</terminalName><lat>51.52127071</lat><long>-0.0755789</long><installed>true</installed><locked>false</locked><installDate>1278601980000</installDate><removalDate></removalDate><temporary>false</temporary><nbBikes>4</nbBikes><nbEmptyDocks>12</nbEmptyDocks><nbDocks>16</nbDocks></station><station><id>41</id><name>Pindar Street, Liverpool Street</name><terminalName>001084</terminalName><lat>51.520955</lat><long>-0.083493552</long><installed>true</installed><locked>false</locked><installDate>1278602280000</installDate><removalDate></removalDate><temporary>false</temporary><nbBikes>6</nbBikes><nbEmptyDocks>18</nbEmptyDocks><nbDocks>24</nbDocks></station><station><id>42</id><name>Wenlock Road , Hoxton</name><terminalName>000979</terminalName><lat>51.53099181</lat><long>-0.093903825</long><installed>true</installed><locked>false</locked><installDate>1278602700000</installDate><removalDate></removalDate><temporary>false</temporary><nbBikes>11</nbBikes><nbEmptyDocks>17</nbEmptyDocks><nbDocks>28</nbDocks></station><station><id>43</id><name>Crawford Street, Marylebone</name><terminalName>001036</terminalName><lat>51.52026</lat><long>-0.157183945</long><installed>true</installed><locked>false</locked><installDate>1278687720000</installDate><removalDate></removalDate><temporary>false</temporary><nbBikes>6</nbBikes><nbEmptyDocks>10</nbEmptyDocks><nbDocks>18</nbDocks></station><station><id>44</id><name>Bruton Street, Mayfair</name><terminalName>001034</terminalName><lat>51.51073687</lat><long>-0.144165239</long><installed>true</installed><locked>false</locked><installDate>1278687900000</installDate><removalDate></removalDate><temporary>false</temporary><nbBikes>13</nbBikes><nbEmptyDocks>8</nbEmptyDocks><nbDocks>21</nbDocks></station><station><id>45</id><name>Boston Place, Marylebone</name><terminalName>001035</terminalName><lat>51.522511</lat><long>-0.162298</long><installed>true</installed><locked>false</locked><installDate>1278691320000</installDate><removalDate></removalDate><temporary>false</temporary><nbBikes>13</nbBikes><nbEmptyDocks>13</nbEmptyDocks><nbDocks>26</nbDocks></station><station><id>46</id><name>Nesham Street, Wapping</name><terminalName>001031</terminalName><lat>51.507131</lat><long>-0.06691</long><installed>true</installed><locked>false</locked><installDate>1278691800000</installDate><removalDate></removalDate><temporary>false</temporary><nbBikes>8</nbBikes><nbEmptyDocks>8</nbEmptyDocks><nbDocks>16</nbDocks></station><station><id>47</id><name>Warwick Avenue Station, Maida Vale</name><terminalName>001027</terminalName><lat>51.52334476</lat><long>-0.183846408</long><installed>true</installed><locked>false</locked><installDate>1278749160000</installDate><removalDate></removalDate><temporary>false</temporary><nbBikes>5</nbBikes><nbEmptyDocks>13</nbEmptyDocks><nbDocks>19</nbDocks></station><station><id>48</id><name>Godliman Street, St. Paul's</name><terminalName>000971</terminalName><lat>51.51248445</lat><long>-0.099141408</long><installed>true</installed><locked>false</locked><installDate>1278749460000</installDate><removalDate></removalDate><temporary>false</temporary><nbBikes>10</nbBikes><nbEmptyDocks>15</nbEmptyDocks><nbDocks>25</nbDocks></station><station><id>49</id><name>Curzon Street, Mayfair</name><terminalName>003437</terminalName><lat>51.50706909</lat><long>-0.145904427</long><installed>true</installed><locked>false</locked><installDate>1278749940000</installDate><removalDate></removalDate><temporary>false</temporary><nbBikes>6</nbBikes><nbEmptyDocks>9</nbEmptyDocks><nbDocks>16</nbDocks></station><station><id>50</id><name>East Road, Hoxton</name><terminalName>001054</terminalName><lat>51.52867339</lat><long>-0.087459376</long><installed>true</installed><locked>false</locked><installDate>1278750240000</installDate><removalDate></removalDate><temporary>false</temporary><nbBikes>4</nbBikes><nbEmptyDocks>23</nbEmptyDocks><nbDocks>27</nbDocks></station><station><id>51</id><name>Finsbury Library , Finsbury</name><terminalName>000986</terminalName><lat>51.52671796</lat><long>-0.104298194</long><installed>true</installed><locked>false</locked><installDate>1278750540000</installDate><removalDate></removalDate><temporary>false</temporary><nbBikes>8</nbBikes><nbEmptyDocks>21</nbEmptyDocks><nbDocks>29</nbDocks></station><station><id>52</id><name>Roscoe Street, St. Luke's</name><terminalName>001026</terminalName><lat>51.52295439</lat><long>-0.094934859</long><installed>true</installed><locked>false</locked><installDate>1278750840000</installDate><removalDate></removalDate><temporary>false</temporary><nbBikes>5</nbBikes><nbEmptyDocks>13</nbEmptyDocks><nbDocks>18</nbDocks></station><station><id>53</id><name>Grafton Street, Mayfair</name><terminalName>003431</terminalName><lat>51.5099923</lat><long>-0.143495266</long><installed>true</installed><locked>false</locked><installDate>1278752580000</installDate><removalDate></removalDate><temporary>false</temporary><nbBikes>12</nbBikes><nbEmptyDocks>6</nbEmptyDocks><nbDocks>18</nbDocks></station><station><id>54</id><name>Golden Lane, Barbican</name><terminalName>000967</terminalName><lat>51.52174785</lat><long>-0.094475072</long><installed>true</installed><locked>false</locked><installDate>1278766740000</installDate><removalDate></removalDate><temporary>false</temporary><nbBikes>5</nbBikes><nbEmptyDocks>20</nbEmptyDocks><nbDocks>27</nbDocks></station><station><id>55</id><name>Finsbury Circus, Liverpool Street</name><terminalName>000984</terminalName><lat>51.51707521</lat><long>-0.086685542</long><installed>true</installed><locked>false</locked><installDate>1278766980000</installDate><removalDate></removalDate><temporary>false</temporary><nbBikes>8</nbBikes><nbEmptyDocks>25</nbEmptyDocks><nbDocks>33</nbDocks></station><station><id>56</id><name>Paddington Street, Marylebone</name><terminalName>001033</terminalName><lat>51.52058381</lat><long>-0.154701411</long><installed>true</installed><locked>false</locked><installDate>1278767220000</installDate><removalDate></removalDate><temporary>false</temporary><nbBikes>6</nbBikes><nbEmptyDocks>8</nbEmptyDocks><nbDocks>16</nbDocks></station><station><id>57</id><name>Guilford Street , Bloomsbury</name><terminalName>000974</terminalName><lat>51.52334672</lat><long>-0.120202614</long><installed>true</installed><locked>false</locked><installDate>1278767460000</installDate><removalDate></removalDate><temporary>false</temporary><nbBikes>21</nbBikes><nbEmptyDocks>10</nbEmptyDocks><nbDocks>32</nbDocks></station><station><id>58</id><name>New Inn Yard, Shoreditch</name><terminalName>001032</terminalName><lat>51.52452699</lat><long>-0.079248081</long><installed>true</installed><locked>false</locked><installDate>1278767700000</installDate><removalDate></removalDate><temporary>false</temporary><nbBikes>9</nbBikes><nbEmptyDocks>10</nbEmptyDocks><nbDocks>20</nbDocks></station><station><id>60</id><name>Lisson Grove, St. John's Wood</name><terminalName>001030</terminalName><lat>51.52644828</lat><long>-0.172190727</long><installed>true</installed><locked>false</locked><installDate>1278769140000</installDate><removalDate></removalDate><temporary>false</temporary><nbBikes>14</nbBikes><nbEmptyDocks>2</nbEmptyDocks><nbDocks>18</nbDocks></station><station><id>61</id><name>Great Dover Street, The Borough</name><terminalName>001017</terminalName><lat>51.49738251</lat><long>-0.089446947</long><installed>true</installed><locked>false</locked><installDate>1278773820000</installDate><removalDate></removalDate><temporary>false</temporary><nbBikes>13</nbBikes><nbEmptyDocks>19</nbEmptyDocks><nbDocks>33</nbDocks></station><station><id>62</id><name>Cotton Garden Estate, Kennington</name><terminalName>000990</terminalName><lat>51.4907579</lat><long>-0.106323685</long><installed>true</installed><locked>false</locked><installDate>1278773940000</installDate><removalDate></removalDate><temporary>false</temporary><nbBikes>18</nbBikes><nbEmptyDocks>4</nbEmptyDocks><nbDocks>24</nbDocks></station><station><id>63</id><name>Murray Grove , Hoxton</name><terminalName>000989</terminalName><lat>51.53089041</lat><long>-0.089782579</long><installed>true</installed><locked>false</locked><installDate>1278774120000</installDate><removalDate></removalDate><temporary>false</temporary><nbBikes>5</nbBikes><nbEmptyDocks>22</nbEmptyDocks><nbDocks>27</nbDocks></station><station><id>64</id><name>William IV Street, Strand</name><terminalName>001028</terminalName><lat>51.50946212</lat><long>-0.124749274</long><installed>true</installed><locked>false</locked><installDate>1278774300000</installDate><removalDate></removalDate><temporary>false</temporary><nbBikes>7</nbBikes><nbEmptyDocks>17</nbEmptyDocks><nbDocks>26</nbDocks></station><station><id>66</id><name>Holborn Circus, Holborn</name><terminalName>000982</terminalName><lat>51.51795029</lat><long>-0.108657431</long><installed>true</installed><locked>false</locked><installDate>1278845280000</installDate><removalDate></removalDate><temporary>false</temporary><nbBikes>11</nbBikes><nbEmptyDocks>29</nbEmptyDocks><nbDocks>40</nbDocks></station><station><id>67</id><name>Hatton Garden, Holborn</name><terminalName>000985</terminalName><lat>51.51882555</lat><long>-0.108028472</long><installed>true</installed><locked>false</locked><installDate>1278847440000</installDate><removalDate></removalDate><temporary>false</temporary><nbBikes>7</nbBikes><nbEmptyDocks>20</nbEmptyDocks><nbDocks>28</nbDocks></station><station><id>68</id><name>Theobald's Road , Holborn</name><terminalName>000975</terminalName><lat>51.52059681</lat><long>-0.116688468</long><installed>true</installed><locked>false</locked><installDate>1278857040000</installDate><removalDate></removalDate><temporary>false</temporary><nbBikes>3</nbBikes><nbEmptyDocks>22</nbEmptyDocks><nbDocks>26</nbDocks></station><station><id>69</id><name>Euston Road, Euston</name><terminalName>000983</terminalName><lat>51.5262363</lat><long>-0.134407652</long><installed>true</installed><locked>false</locked><installDate>1278861540000</installDate><removalDate></removalDate><temporary>false</temporary><nbBikes>7</nbBikes><nbEmptyDocks>17</nbEmptyDocks><nbDocks>24</nbDocks></station><station><id>70</id><name>Calshot Street , King's Cross</name><terminalName>001066</terminalName><lat>51.53136059</lat><long>-0.117069978</long><installed>true</installed><locked>false</locked><installDate>1278863340000</installDate><removalDate></removalDate><temporary>false</temporary><nbBikes>6</nbBikes><nbEmptyDocks>18</nbEmptyDocks><nbDocks>24</nbDocks></station><station><id>71</id><name>Newgate Street , St. Paul's</name><terminalName>001074</terminalName><lat>51.5154186</lat><long>-0.098850915</long><installed>true</installed><locked>false</locked><installDate>1278924900000</installDate><removalDate></removalDate><temporary>false</temporary><nbBikes>8</nbBikes><nbEmptyDocks>26</nbEmptyDocks><nbDocks>34</nbDocks></station><station><id>72</id><name>Farringdon Lane, Clerkenwell</name><terminalName>003432</terminalName><lat>51.52352001</lat><long>-0.108340165</long><installed>true</installed><locked>false</locked><installDate>1276948860000</installDate><removalDate></removalDate><temporary>false</temporary><nbBikes>10</nbBikes><nbEmptyDocks>6</nbEmptyDocks><nbDocks>16</nbDocks></station><station><id>73</id><name>Old Street Station, St. Luke's</name><terminalName>001064</terminalName><lat>51.52572618</lat><long>-0.088486188</long><installed>true</installed><locked>false</locked><installDate>1278941040000</installDate><removalDate></removalDate><temporary>false</temporary><nbBikes>19</nbBikes><nbEmptyDocks>18</nbEmptyDocks><nbDocks>37</nbDocks></station><station><id>74</id><name>Vauxhall Cross, Vauxhall</name><terminalName>001000</terminalName><lat>51.48591714</lat><long>-0.124469948</long><installed>true</installed><locked>false</locked><installDate>1278941160000</installDate><removalDate></removalDate><temporary>false</temporary><nbBikes>4</nbBikes><nbEmptyDocks>10</nbEmptyDocks><nbDocks>17</nbDocks></station><station><id>75</id><name>Torrens Street, Angel</name><terminalName>001060</terminalName><lat>51.53219984</lat><long>-0.105480698</long><installed>true</installed><locked>false</locked><installDate>1278945180000</installDate><removalDate></removalDate><temporary>false</temporary><nbBikes>13</nbBikes><nbEmptyDocks>6</nbEmptyDocks><nbDocks>19</nbDocks></station><station><id>76</id><name>Longford Street, The Regent's Park</name><terminalName>000976</terminalName><lat>51.52559505</lat><long>-0.144083893</long><installed>true</installed><locked>false</locked><installDate>1278946560000</installDate><removalDate></removalDate><temporary>false</temporary><nbBikes>5</nbBikes><nbEmptyDocks>16</nbEmptyDocks><nbDocks>21</nbDocks></station><station><id>77</id><name>Russell Square Station, Bloomsbury</name><terminalName>000978</terminalName><lat>51.52341837</lat><long>-0.124121774</long><installed>true</installed><locked>false</locked><installDate>1278946860000</installDate><removalDate></removalDate><temporary>false</temporary><nbBikes>4</nbBikes><nbEmptyDocks>22</nbEmptyDocks><nbDocks>26</nbDocks></station><station><id>78</id><name>Sadlers Sports Centre, Finsbury</name><terminalName>003433</terminalName><lat>51.52486887</lat><long>-0.099489485</long><installed>true</installed><locked>false</locked><installDate>1278948480000</installDate><removalDate></removalDate><temporary>false</temporary><nbBikes>5</nbBikes><nbEmptyDocks>12</nbEmptyDocks><nbDocks>17</nbDocks></station><station><id>79</id><name>Arundel Street, Temple</name><terminalName>003455</terminalName><lat>51.511726</lat><long>-0.11385596</long><installed>true</installed><locked>false</locked><installDate>1509018360000</installDate><removalDate></removalDate><temporary>false</temporary><nbBikes>4</nbBikes><nbEmptyDocks>13</nbEmptyDocks><nbDocks>18</nbDocks></station><station><id>80</id><name>Webber Street , Southwark</name><terminalName>003448</terminalName><lat>51.50069361</lat><long>-0.102091246</long><installed>true</installed><locked>false</locked><installDate>1278952440000</installDate><removalDate></removalDate><temporary>false</temporary><nbBikes>15</nbBikes><nbEmptyDocks>30</nbEmptyDocks><nbDocks>45</nbDocks></station><station><id>81</id><name>Great Titchfield Street, Fitzrovia</name><terminalName>003450</terminalName><lat>51.52025302</lat><long>-0.141327271</long><installed>true</installed><locked>false</locked><installDate>1279012980000</installDate><removalDate></removalDate><temporary>false</temporary><nbBikes>6</nbBikes><nbEmptyDocks>12</nbEmptyDocks><nbDocks>19</nbDocks></station><station><id>82</id><name>Chancery Lane, Holborn</name><terminalName>003453</terminalName><lat>51.514274</lat><long>-0.111257</long><installed>true</installed><locked>false</locked><installDate>1279015680000</installDate><removalDate></removalDate><temporary>false</temporary><nbBikes>2</nbBikes><nbEmptyDocks>13</nbEmptyDocks><nbDocks>15</nbDocks></station><station><id>83</id><name>Panton Street, West End</name><terminalName>003452</terminalName><lat>51.50963938</lat><long>-0.131510949</long><installed>true</installed><locked>false</locked><installDate>1279015800000</installDate><removalDate></removalDate><temporary>false</temporary><nbBikes>3</nbBikes><nbEmptyDocks>17</nbEmptyDocks><nbDocks>21</nbDocks></station><station><id>84</id><name>Breams Buildings, Holborn</name><terminalName>003449</terminalName><lat>51.51593725</lat><long>-0.111778348</long><installed>true</installed><locked>false</locked><installDate>1279020240000</installDate><removalDate></removalDate><temporary>false</temporary><nbBikes>4</nbBikes><nbEmptyDocks>21</nbEmptyDocks><nbDocks>25</nbDocks></station><station><id>85</id><name>Tanner Street, Bermondsey</name><terminalName>000994</terminalName><lat>51.50064702</lat><long>-0.078600401</long><installed>true</installed><locked>false</locked><installDate>1279026060000</installDate><removalDate></removalDate><temporary>false</temporary><nbBikes>24</nbBikes><nbEmptyDocks>15</nbEmptyDocks><nbDocks>40</nbDocks></station><station><id>86</id><name>Sancroft Street, Vauxhall</name><terminalName>003434</terminalName><lat>51.48947903</lat><long>-0.115156562</long><installed>true</installed><locked>false</locked><installDate>1279027140000</installDate><removalDate></removalDate><temporary>false</temporary><nbBikes>1</nbBikes><nbEmptyDocks>22</nbEmptyDocks><nbDocks>24</nbDocks></station><station><id>88</id><name>Bayley Street , Bloomsbury</name><terminalName>001006</terminalName><lat>51.51858757</lat><long>-0.132053392</long><installed>true</installed><locked>false</locked><installDate>1279028280000</installDate><removalDate></removalDate><temporary>false</temporary><nbBikes>9</nbBikes><nbEmptyDocks>15</nbEmptyDocks><nbDocks>25</nbDocks></station><station><id>89</id><name>Tavistock Place, Bloomsbury</name><terminalName>003439</terminalName><lat>51.5262503</lat><long>-0.123509611</long><installed>true</installed><locked>false</locked><installDate>1279029360000</installDate><removalDate></removalDate><temporary>false</temporary><nbBikes>0</nbBikes><nbEmptyDocks>19</nbEmptyDocks><nbDocks>19</nbDocks></station><station><id>90</id><name>Harrington Square 1, Camden Town</name><terminalName>001038</terminalName><lat>51.53301907</lat><long>-0.139174593</long><installed>true</installed><locked>false</locked><installDate>1279030020000</installDate><removalDate></removalDate><temporary>false</temporary><nbBikes>16</nbBikes><nbEmptyDocks>10</nbEmptyDocks><nbDocks>27</nbDocks></station><station><id>91</id><name>Walnut Tree Walk, Vauxhall</name><terminalName>001076</terminalName><lat>51.49368637</lat><long>-0.111014912</long><installed>true</installed><locked>false</locked><installDate>1279036740000</installDate><removalDate></removalDate><temporary>false</temporary><nbBikes>0</nbBikes><nbEmptyDocks>19</nbEmptyDocks><nbDocks>20</nbDocks></station><station><id>92</id><name>Borough Road, Elephant &amp; Castle</name><terminalName>001082</terminalName><lat>51.49889832</lat><long>-0.100440521</long><installed>true</installed><locked>false</locked><installDate>1279037040000</installDate><removalDate></removalDate><temporary>false</temporary><nbBikes>8</nbBikes><nbEmptyDocks>33</nbEmptyDocks><nbDocks>41</nbDocks></station><station><id>93</id><name>Cloudesley Road, Angel</name><terminalName>002586</terminalName><lat>51.53440868</lat><long>-0.109025404</long><installed>true</installed><locked>false</locked><installDate>1279037760000</installDate><removalDate></removalDate><temporary>false</temporary><nbBikes>17</nbBikes><nbEmptyDocks>20</nbEmptyDocks><nbDocks>37</nbDocks></station><station><id>94</id><name>Bricklayers Arms, Borough</name><terminalName>001070</terminalName><lat>51.49506109</lat><long>-0.085814489</long><installed>true</installed><locked>false</locked><installDate>1279038420000</installDate><removalDate></removalDate><temporary>false</temporary><nbBikes>19</nbBikes><nbEmptyDocks>9</nbEmptyDocks><nbDocks>28</nbDocks></station><station><id>95</id><name>Aldersgate Street, Barbican</name><terminalName>001065</terminalName><lat>51.5208417</lat><long>-0.097340162</long><installed>true</installed><locked>false</locked><installDate>1279096560000</installDate><removalDate></removalDate><temporary>false</temporary><nbBikes>4</nbBikes><nbEmptyDocks>11</nbEmptyDocks><nbDocks>15</nbDocks></station><station><id>96</id><name>Falkirk Street, Hoxton</name><terminalName>001047</terminalName><lat>51.53095071</lat><long>-0.078505384</long><installed>true</installed><locked>false</locked><installDate>1279096980000</installDate><removalDate></removalDate><temporary>false</temporary><nbBikes>17</nbBikes><nbEmptyDocks>9</nbEmptyDocks><nbDocks>26</nbDocks></station><station><id>97</id><name>Gloucester Road (North), Kensington</name><terminalName>003447</terminalName><lat>51.49792478</lat><long>-0.183834706</long><installed>true</installed><locked>false</locked><installDate>1279097580000</installDate><removalDate></removalDate><temporary>false</temporary><nbBikes>3</nbBikes><nbEmptyDocks>14</nbEmptyDocks><nbDocks>18</nbDocks></station><station><id>98</id><name>Hampstead Road, Euston</name><terminalName>000972</terminalName><lat>51.52554222</lat><long>-0.138231303</long><installed>true</installed><locked>false</locked><installDate>1279099080000</installDate><removalDate></removalDate><temporary>false</temporary><nbBikes>13</nbBikes><nbEmptyDocks>40</nbEmptyDocks><nbDocks>54</nbDocks></station><station><id>99</id><name>Old Quebec Street, Marylebone</name><terminalName>001085</terminalName><lat>51.51457763</lat><long>-0.158264483</long><installed>true</installed><locked>false</locked><installDate>1279099680000</installDate><removalDate></removalDate><temporary>false</temporary><nbBikes>3</nbBikes><nbEmptyDocks>11</nbEmptyDocks><nbDocks>16</nbDocks></station><station><id>100</id><name>Albert Embankment, Vauxhall</name><terminalName>001059</terminalName><lat>51.49043573</lat><long>-0.122806861</long><installed>true</installed><locked>false</locked><installDate>1279099860000</installDate><removalDate></removalDate><temporary>false</temporary><nbBikes>13</nbBikes><nbEmptyDocks>11</nbEmptyDocks><nbDocks>24</nbDocks></station><station><id>101</id><name>Queen Street 1, Bank</name><terminalName>000999</terminalName><lat>51.51155322</lat><long>-0.0929401</long><installed>true</installed><locked>false</locked><installDate>1279102680000</installDate><removalDate></removalDate><temporary>false</temporary><nbBikes>14</nbBikes><nbEmptyDocks>7</nbEmptyDocks><nbDocks>22</nbDocks></station><station><id>102</id><name>Jewry Street, Aldgate</name><terminalName>001045</terminalName><lat>51.51340693</lat><long>-0.076793375</long><installed>true</installed><locked>false</locked><installDate>1279102860000</installDate><removalDate></removalDate><temporary>false</temporary><nbBikes>6</nbBikes><nbEmptyDocks>11</nbEmptyDocks><nbDocks>17</nbDocks></station><station><id>103</id><name>Vicarage Gate, Kensington</name><terminalName>003441</terminalName><lat>51.50472376</lat><long>-0.192538767</long><installed>true</installed><locked>false</locked><installDate>1279103520000</installDate><removalDate></removalDate><temporary>false</temporary><nbBikes>5</nbBikes><nbEmptyDocks>11</nbEmptyDocks><nbDocks>18</nbDocks></station><station><id>104</id><name>Crosswall, Tower</name><terminalName>000991</terminalName><lat>51.51159481</lat><long>-0.077121322</long><installed>true</installed><locked>false</locked><installDate>1279103760000</installDate><removalDate></removalDate><temporary>false</temporary><nbBikes>6</nbBikes><nbEmptyDocks>27</nbEmptyDocks><nbDocks>34</nbDocks></station><station><id>105</id><name>Westbourne Grove, Bayswater</name><terminalName>001041</terminalName><lat>51.51552971</lat><long>-0.190240716</long><installed>true</installed><locked>false</locked><installDate>1279105320000</installDate><removalDate></removalDate><temporary>false</temporary><nbBikes>8</nbBikes><nbEmptyDocks>17</nbEmptyDocks><nbDocks>26</nbDocks></station><station><id>106</id><name>Woodstock Street, Mayfair</name><terminalName>001042</terminalName><lat>51.51410514</lat><long>-0.147301667</long><installed>true</installed><locked>false</locked><installDate>1279106880000</installDate><removalDate></removalDate><temporary>false</temporary><nbBikes>13</nbBikes><nbEmptyDocks>8</nbEmptyDocks><nbDocks>21</nbDocks></station><station><id>107</id><name>Finsbury Leisure Centre, St. Luke's</name><terminalName>001049</terminalName><lat>51.52600832</lat><long>-0.096317627</long><installed>true</installed><locked>false</locked><installDate>1279107480000</installDate><removalDate></removalDate><temporary>false</temporary><nbBikes>9</nbBikes><nbEmptyDocks>11</nbEmptyDocks><nbDocks>20</nbDocks></station><station><id>108</id><name>Abbey Orchard Street, Westminster</name><terminalName>003429</terminalName><lat>51.49812559</lat><long>-0.132102166</long><installed>true</installed><locked>false</locked><installDate>1279107720000</installDate><removalDate></removalDate><temporary>false</temporary><nbBikes>11</nbBikes><nbEmptyDocks>17</nbEmptyDocks><nbDocks>29</nbDocks></station><station><id>109</id><name>Soho Square , Soho</name><terminalName>001052</terminalName><lat>51.51563144</lat><long>-0.132328837</long><installed>true</installed><locked>false</locked><installDate>1279108320000</installDate><removalDate></removalDate><temporary>false</temporary><nbBikes>6</nbBikes><nbEmptyDocks>51</nbEmptyDocks><nbDocks>57</nbDocks></station><station><id>110</id><name>Wellington Road, St. John's Wood</name><terminalName>001055</terminalName><lat>51.53304322</lat><long>-0.172528678</long><installed>true</installed><locked>false</locked><installDate>1279108920000</installDate><removalDate></removalDate><temporary>false</temporary><nbBikes>6</nbBikes><nbEmptyDocks>10</nbEmptyDocks><nbDocks>17</nbDocks></station><station><id>111</id><name>Park Lane , Hyde Park</name><terminalName>001037</terminalName><lat>51.5100172</lat><long>-0.157275636</long><installed>true</installed><locked>false</locked><installDate>1279109160000</installDate><removalDate></removalDate><temporary>false</temporary><nbBikes>22</nbBikes><nbEmptyDocks>5</nbEmptyDocks><nbDocks>28</nbDocks></station><station><id>112</id><name>Stonecutter Street, Holborn</name><terminalName>001061</terminalName><lat>51.51580998</lat><long>-0.105270275</long><installed>true</installed><locked>false</locked><installDate>1279115460000</installDate><removalDate></removalDate><temporary>false</temporary><nbBikes>6</nbBikes><nbEmptyDocks>15</nbEmptyDocks><nbDocks>21</nbDocks></station><station><id>113</id><name>Gloucester Road (Central), South Kensington</name><terminalName>003435</terminalName><lat>51.49646288</lat><long>-0.183289032</long><installed>true</installed><locked>false</locked><installDate>1279116600000</installDate><removalDate></removalDate><temporary>false</temporary><nbBikes>2</nbBikes><nbEmptyDocks>16</nbEmptyDocks><nbDocks>19</nbDocks></station><station><id>114</id><name>Park Road (Baker Street), The Regent's Park</name><terminalName>001050</terminalName><lat>51.52451738</lat><long>-0.158963647</long><installed>true</installed><locked>false</locked><installDate>1279119900000</installDate><removalDate></removalDate><temporary>false</temporary><nbBikes>8</nbBikes><nbEmptyDocks>14</nbEmptyDocks><nbDocks>22</nbDocks></station><station><id>115</id><name>Braham Street, Aldgate</name><terminalName>001062</terminalName><lat>51.51423368</lat><long>-0.073537654</long><installed>true</installed><locked>false</locked><installDate>1279120680000</installDate><removalDate></removalDate><temporary>false</temporary><nbBikes>17</nbBikes><nbEmptyDocks>17</nbEmptyDocks><nbDocks>34</nbDocks></station><station><id>116</id><name>Little Argyll Street, West End</name><terminalName>000995</terminalName><lat>51.51449962</lat><long>-0.141423695</long><installed>true</installed><locked>false</locked><installDate>1279122360000</installDate><removalDate></removalDate><temporary>false</temporary><nbBikes>13</nbBikes><nbEmptyDocks>8</nbEmptyDocks><nbDocks>21</nbDocks></station><station><id>117</id><name>Lollard Street, Vauxhall</name><terminalName>000998</terminalName><lat>51.49288067</lat><long>-0.114934001</long><installed>true</installed><locked>false</locked><installDate>1279124220000</installDate><removalDate></removalDate><temporary>false</temporary><nbBikes>4</nbBikes><nbEmptyDocks>21</nbEmptyDocks><nbDocks>25</nbDocks></station><station><id>118</id><name>Rochester Row, Westminster</name><terminalName>003457</terminalName><lat>51.49582705</lat><long>-0.13547809</long><installed>true</installed><locked>false</locked><installDate>1279124520000</installDate><removalDate></removalDate><temporary>false</temporary><nbBikes>9</nbBikes><nbEmptyDocks>4</nbEmptyDocks><nbDocks>13</nbDocks></station><station><id>119</id><name>Bath Street, St. Luke's</name><terminalName>000964</terminalName><lat>51.52589324</lat><long>-0.090847761</long><installed>true</installed><locked>false</locked><installDate>1279124760000</installDate><removalDate></removalDate><temporary>false</temporary><nbBikes>11</nbBikes><nbEmptyDocks>7</nbEmptyDocks><nbDocks>18</nbDocks></station><station><id>120</id><name>The Guildhall, Guildhall</name><terminalName>001044</terminalName><lat>51.51573534</lat><long>-0.093080779</long><installed>true</installed><locked>false</locked><installDate>1279187040000</installDate><removalDate></removalDate><temporary>false</temporary><nbBikes>11</nbBikes><nbEmptyDocks>6</nbEmptyDocks><nbDocks>17</nbDocks></station><station><id>121</id><name>Baker Street, Marylebone</name><terminalName>001086</terminalName><lat>51.51891348</lat><long>-0.156166631</long><installed>true</installed><locked>false</locked><installDate>1279189200000</installDate><removalDate></removalDate><temporary>false</temporary><nbBikes>2</nbBikes><nbEmptyDocks>20</nbEmptyDocks><nbDocks>22</nbDocks></station><station><id>122</id><name>Norton Folgate, Liverpool Street</name><terminalName>001068</terminalName><lat>51.52111369</lat><long>-0.078869751</long><installed>true</installed><locked>false</locked><installDate>1279190040000</installDate><removalDate></removalDate><temporary>false</temporary><nbBikes>4</nbBikes><nbEmptyDocks>19</nbEmptyDocks><nbDocks>23</nbDocks></station><station><id>123</id><name>St. John Street, Finsbury</name><terminalName>000992</terminalName><lat>51.52836014</lat><long>-0.104724625</long><installed>true</installed><locked>false</locked><installDate>1279191300000</installDate><removalDate></removalDate><temporary>false</temporary><nbBikes>7</nbBikes><nbEmptyDocks>11</nbEmptyDocks><nbDocks>18</nbDocks></station><station><id>124</id><name>Eaton Square, Belgravia</name><terminalName>001069</terminalName><lat>51.49654462</lat><long>-0.150905245</long><installed>true</installed><locked>false</locked><installDate>1279191540000</installDate><removalDate></removalDate><temporary>false</temporary><nbBikes>15</nbBikes><nbEmptyDocks>5</nbEmptyDocks><nbDocks>20</nbDocks></station><station><id>125</id><name>Borough High Street, The Borough</name><terminalName>000996</terminalName><lat>51.50069491</lat><long>-0.094524319</long><installed>true</installed><locked>false</locked><installDate>1279192200000</installDate><removalDate></removalDate><temporary>false</temporary><nbBikes>19</nbBikes><nbEmptyDocks>2</nbEmptyDocks><nbDocks>21</nbDocks></station><station><id>126</id><name>Museum of London, Barbican</name><terminalName>001043</terminalName><lat>51.51782144</lat><long>-0.096496865</long><installed>true</installed><locked>false</locked><installDate>1279193340000</installDate><removalDate></removalDate><temporary>false</temporary><nbBikes>2</nbBikes><nbEmptyDocks>50</nbEmptyDocks><nbDocks>52</nbDocks></station><station><id>127</id><name>Wood Street, Guildhall</name><terminalName>001063</terminalName><lat>51.51700801</lat><long>-0.09388536</long><installed>true</installed><locked>false</locked><installDate>1279193520000</installDate><removalDate></removalDate><temporary>false</temporary><nbBikes>7</nbBikes><nbEmptyDocks>8</nbEmptyDocks><nbDocks>17</nbDocks></station><station><id>128</id><name>Emperor's Gate, South Kensington</name><terminalName>001116</terminalName><lat>51.49536226</lat><long>-0.185296516</long><installed>true</installed><locked>false</locked><installDate>1279194060000</installDate><removalDate></removalDate><temporary>false</temporary><nbBikes>10</nbBikes><nbEmptyDocks>9</nbEmptyDocks><nbDocks>22</nbDocks></station><station><id>129</id><name>Golden Square, Soho</name><terminalName>003451</terminalName><lat>51.5118973</lat><long>-0.137043852</long><installed>true</installed><locked>false</locked><installDate>1279198500000</installDate><removalDate></removalDate><temporary>false</temporary><nbBikes>13</nbBikes><nbEmptyDocks>5</nbEmptyDocks><nbDocks>18</nbDocks></station><station><id>130</id><name>Tower Gardens , Tower</name><terminalName>001071</terminalName><lat>51.50950627</lat><long>-0.075459482</long><installed>true</installed><locked>false</locked><installDate>1279198800000</installDate><removalDate></removalDate><temporary>false</temporary><nbBikes>1</nbBikes><nbEmptyDocks>22</nbEmptyDocks><nbDocks>24</nbDocks></station><station><id>131</id><name>Eversholt Street , Camden Town</name><terminalName>001005</terminalName><lat>51.53300545</lat><long>-0.136792671</long><installed>true</installed><locked>false</locked><installDate>1279199280000</installDate><removalDate></removalDate><temporary>false</temporary><nbBikes>13</nbBikes><nbEmptyDocks>3</nbEmptyDocks><nbDocks>16</nbDocks></station><station><id>132</id><name>Bethnal Green Road, Shoreditch</name><terminalName>000973</terminalName><lat>51.52364804</lat><long>-0.074754872</long><installed>true</installed><locked>false</locked><installDate>1279199520000</installDate><removalDate></removalDate><temporary>false</temporary><nbBikes>3</nbBikes><nbEmptyDocks>34</nbEmptyDocks><nbDocks>38</nbDocks></station><station><id>134</id><name>Wapping High Street, Wapping</name><terminalName>001039</terminalName><lat>51.504904</lat><long>-0.06797</long><installed>true</installed><locked>false</locked><installDate>1279200900000</installDate><removalDate></removalDate><temporary>false</temporary><nbBikes>15</nbBikes><nbEmptyDocks>5</nbEmptyDocks><nbDocks>20</nbDocks></station><station><id>135</id><name>Clerkenwell Green, Clerkenwell</name><terminalName>001053</terminalName><lat>51.52326004</lat><long>-0.104708922</long><installed>true</installed><locked>false</locked><installDate>1279201080000</installDate><removalDate></removalDate><temporary>false</temporary><nbBikes>10</nbBikes><nbEmptyDocks>11</nbEmptyDocks><nbDocks>21</nbDocks></station><station><id>136</id><name>Queen Victoria Street, St. Paul's</name><terminalName>001048</terminalName><lat>51.51196176</lat><long>-0.097441687</long><installed>true</installed><locked>false</locked><installDate>1279201200000</installDate><removalDate></removalDate><temporary>false</temporary><nbBikes>10</nbBikes><nbEmptyDocks>21</nbEmptyDocks><nbDocks>32</nbDocks></station><station><id>138</id><name>Green Street, Mayfair</name><terminalName>003464</terminalName><lat>51.51227622</lat><long>-0.157436972</long><installed>true</installed><locked>false</locked><installDate>1279205220000</installDate><removalDate></removalDate><temporary>false</temporary><nbBikes>6</nbBikes><nbEmptyDocks>12</nbEmptyDocks><nbDocks>19</nbDocks></station><station><id>139</id><name>Lambeth Road, Vauxhall</name><terminalName>001078</terminalName><lat>51.49488108</lat><long>-0.117974901</long><installed>true</installed><locked>false</locked><installDate>1279205460000</installDate><removalDate></removalDate><temporary>false</temporary><nbBikes>8</nbBikes><nbEmptyDocks>9</nbEmptyDocks><nbDocks>18</nbDocks></station><station><id>140</id><name>Finsbury Square , Moorgate</name><terminalName>001056</terminalName><lat>51.52096262</lat><long>-0.085634242</long><installed>true</installed><locked>false</locked><installDate>1279205580000</installDate><removalDate></removalDate><temporary>false</temporary><nbBikes>15</nbBikes><nbEmptyDocks>18</nbEmptyDocks><nbDocks>33</nbDocks></station><station><id>141</id><name>Chapel Place, Marylebone</name><terminalName>001003</terminalName><lat>51.51530805</lat><long>-0.147203711</long><installed>true</installed><locked>false</locked><installDate>1279210980000</installDate><removalDate></removalDate><temporary>false</temporary><nbBikes>7</nbBikes><nbEmptyDocks>22</nbEmptyDocks><nbDocks>29</nbDocks></station><station><id>142</id><name>West Cromwell Road, Earl's Court</name><terminalName>001001</terminalName><lat>51.49372451</lat><long>-0.198286569</long><installed>true</installed><locked>false</locked><installDate>1279211220000</installDate><removalDate></removalDate><temporary>false</temporary><nbBikes>19</nbBikes><nbEmptyDocks>5</nbEmptyDocks><nbDocks>24</nbDocks></station><station><id>143</id><name>Pont Street, Knightsbridge</name><terminalName>001114</terminalName><lat>51.4968865</lat><long>-0.161203828</long><installed>true</installed><locked>false</locked><installDate>1279211400000</installDate><removalDate></removalDate><temporary>false</temporary><nbBikes>17</nbBikes><nbEmptyDocks>7</nbEmptyDocks><nbDocks>24</nbDocks></station><station><id>144</id><name>Kennington Cross, Kennington</name><terminalName>001093</terminalName><lat>51.48894022</lat><long>-0.111435796</long><installed>true</installed><locked>false</locked><installDate>1279211580000</installDate><removalDate></removalDate><temporary>false</temporary><nbBikes>21</nbBikes><nbEmptyDocks>25</nbEmptyDocks><nbDocks>47</nbDocks></station><station><id>145</id><name>Ilchester Place, Kensington</name><terminalName>001115</terminalName><lat>51.50074359</lat><long>-0.202759212</long><installed>true</installed><locked>false</locked><installDate>1279212180000</installDate><removalDate></removalDate><temporary>false</temporary><nbBikes>6</nbBikes><nbEmptyDocks>17</nbEmptyDocks><nbDocks>24</nbDocks></station><station><id>146</id><name>Vauxhall Bridge , Pimlico</name><terminalName>001046</terminalName><lat>51.48836528</lat><long>-0.129361842</long><installed>true</installed><locked>false</locked><installDate>1279212360000</installDate><removalDate></removalDate><temporary>false</temporary><nbBikes>16</nbBikes><nbEmptyDocks>19</nbEmptyDocks><nbDocks>35</nbDocks></station><station><id>148</id><name>Tachbrook Street, Victoria</name><terminalName>000965</terminalName><lat>51.49211134</lat><long>-0.138364847</long><installed>true</installed><locked>false</locked><installDate></installDate><removalDate></removalDate><temporary>false</temporary><nbBikes>5</nbBikes><nbEmptyDocks>8</nbEmptyDocks><nbDocks>16</nbDocks></station><station><id>149</id><name>Kennington Road Post Office, Oval</name><terminalName>001073</terminalName><lat>51.48478899</lat><long>-0.110683213</long><installed>true</installed><locked>false</locked><installDate>1279215360000</installDate><removalDate></removalDate><temporary>false</temporary><nbBikes>14</nbBikes><nbEmptyDocks>4</nbEmptyDocks><nbDocks>18</nbDocks></station><station><id>150</id><name>Holy Trinity Brompton, Knightsbridge</name><terminalName>001002</terminalName><lat>51.49705603</lat><long>-0.168917077</long><installed>true</installed><locked>false</locked><installDate>1279215540000</installDate><removalDate></removalDate><temporary>false</temporary><nbBikes>2</nbBikes><nbEmptyDocks>25</nbEmptyDocks><nbDocks>28</nbDocks></station><station><id>151</id><name>Chepstow Villas, Notting Hill</name><terminalName>001120</terminalName><lat>51.51213691</lat><long>-0.201554966</long><installed>true</installed><locked>false</locked><installDate>1279215720000</installDate><removalDate></removalDate><temporary>false</temporary><nbBikes>3</nbBikes><nbEmptyDocks>22</nbEmptyDocks><nbDocks>26</nbDocks></station><station><id>152</id><name>Hampton Street, Walworth</name><terminalName>001118</terminalName><lat>51.49217002</lat><long>-0.101536865</long><installed>true</installed><locked>false</locked><installDate>1279215900000</installDate><removalDate></removalDate><temporary>false</temporary><nbBikes>16</nbBikes><nbEmptyDocks>5</nbEmptyDocks><nbDocks>21</nbDocks></station><station><id>153</id><name>Bayswater Road, Hyde Park</name><terminalName>001096</terminalName><lat>51.511933</lat><long>-0.174411</long><installed>true</installed><locked>false</locked><installDate>1279216080000</installDate><removalDate></removalDate><temporary>false</temporary><nbBikes>0</nbBikes><nbEmptyDocks>21</nbEmptyDocks><nbDocks>27</nbDocks></station><station><id>154</id><name>Waterloo Station 3, Waterloo</name><terminalName>001072</terminalName><lat>51.50379168</lat><long>-0.11282408</long><installed>true</installed><locked>false</locked><installDate></installDate><removalDate></removalDate><temporary>false</temporary><nbBikes>14</nbBikes><nbEmptyDocks>21</nbEmptyDocks><nbDocks>35</nbDocks></station><station><id>155</id><name>Lexham Gardens, Kensington</name><terminalName>001121</terminalName><lat>51.49586666</lat><long>-0.191933711</long><installed>true</installed><locked>false</locked><installDate>1279272660000</installDate><removalDate></removalDate><temporary>false</temporary><nbBikes>0</nbBikes><nbEmptyDocks>19</nbEmptyDocks><nbDocks>19</nbDocks></station><station><id>156</id><name>New Kent Road, The Borough</name><terminalName>000966</terminalName><lat>51.49443626</lat><long>-0.092921165</long><installed>true</installed><locked>false</locked><installDate>1279273080000</installDate><removalDate></removalDate><temporary>false</temporary><nbBikes>6</nbBikes><nbEmptyDocks>27</nbEmptyDocks><nbDocks>33</nbDocks></station><station><id>157</id><name>Wright's Lane, Kensington</name><terminalName>001094</terminalName><lat>51.50039792</lat><long>-0.193068385</long><installed>true</installed><locked>false</locked><installDate>1279273200000</installDate><removalDate></removalDate><temporary>false</temporary><nbBikes>4</nbBikes><nbEmptyDocks>32</nbEmptyDocks><nbDocks>37</nbDocks></station><station><id>158</id><name>Trebovir Road, Earl's Court</name><terminalName>001113</terminalName><lat>51.49085368</lat><long>-0.196170309</long><installed>true</installed><locked>false</locked><installDate>1279273320000</installDate><removalDate></removalDate><temporary>false</temporary><nbBikes>15</nbBikes><nbEmptyDocks>3</nbEmptyDocks><nbDocks>18</nbDocks></station><station><id>159</id><name>Great Marlborough Street, Soho</name><terminalName>001125</terminalName><lat>51.51461995</lat><long>-0.137841333</long><installed>true</installed><locked>false</locked><installDate>1279273560000</installDate><removalDate></removalDate><temporary>false</temporary><nbBikes>8</nbBikes><nbEmptyDocks>31</nbEmptyDocks><nbDocks>39</nbDocks></station><station><id>160</id><name>Waterloo Place, St. James's</name><terminalName>003458</terminalName><lat>51.50663341</lat><long>-0.131773845</long><installed>true</installed><locked>false</locked><installDate>1279274280000</installDate><removalDate></removalDate><temporary>false</temporary><nbBikes>5</nbBikes><nbEmptyDocks>11</nbEmptyDocks><nbDocks>20</nbDocks></station><station><id>161</id><name>Guildhouse Street, Victoria</name><terminalName>003478</terminalName><lat>51.49234577</lat><long>-0.141334487</long><installed>true</installed><locked>false</locked><installDate>1279286940000</installDate><removalDate></removalDate><temporary>false</temporary><nbBikes>9</nbBikes><nbEmptyDocks>7</nbEmptyDocks><nbDocks>16</nbDocks></station><station><id>162</id><name>Southampton Place, Holborn</name><terminalName>001123</terminalName><lat>51.51760685</lat><long>-0.121328408</long><installed>true</installed><locked>false</locked><installDate>1279287120000</installDate><removalDate></removalDate><temporary>false</temporary><nbBikes>10</nbBikes><nbEmptyDocks>10</nbEmptyDocks><nbDocks>20</nbDocks></station><station><id>163</id><name>Sloane Avenue, Knightsbridge</name><terminalName>003461</terminalName><lat>51.4931848</lat><long>-0.167894973</long><installed>true</installed><locked>false</locked><installDate>1279287300000</installDate><removalDate></removalDate><temporary>false</temporary><nbBikes>4</nbBikes><nbEmptyDocks>22</nbEmptyDocks><nbDocks>27</nbDocks></station><station><id>164</id><name>Cleveland Gardens, Bayswater</name><terminalName>001178</terminalName><lat>51.515607</lat><long>-0.183118788</long><installed>true</installed><locked>false</locked><installDate>1279287600000</installDate><removalDate></removalDate><temporary>false</temporary><nbBikes>1</nbBikes><nbEmptyDocks>14</nbEmptyDocks><nbDocks>16</nbDocks></station><station><id>165</id><name>Orsett Terrace, Bayswater</name><terminalName>002585</terminalName><lat>51.517932</lat><long>-0.183716959</long><installed>true</installed><locked>false</locked><installDate>1279287960000</installDate><removalDate></removalDate><temporary>false</temporary><nbBikes>8</nbBikes><nbEmptyDocks>7</nbEmptyDocks><nbDocks>15</nbDocks></station><station><id>166</id><name>Seville Street, Knightsbridge</name><terminalName>001177</terminalName><lat>51.50185512</lat><long>-0.159237081</long><installed>true</installed><locked>false</locked><installDate>1279288140000</installDate><removalDate></removalDate><temporary>false</temporary><nbBikes>2</nbBikes><nbEmptyDocks>24</nbEmptyDocks><nbDocks>27</nbDocks></station><station><id>167</id><name>Eccleston Place, Victoria</name><terminalName>003465</terminalName><lat>51.49395092</lat><long>-0.147624377</long><installed>true</installed><locked>false</locked><installDate></installDate><removalDate></removalDate><temporary>false</temporary><nbBikes>15</nbBikes><nbEmptyDocks>4</nbEmptyDocks><nbDocks>19</nbDocks></station><station><id>168</id><name>Argyll Road, Kensington</name><terminalName>003463</terminalName><lat>51.50040123</lat><long>-0.195455928</long><installed>true</installed><locked>false</locked><installDate>1279289400000</installDate><removalDate></removalDate><temporary>false</temporary><nbBikes>4</nbBikes><nbEmptyDocks>15</nbEmptyDocks><nbDocks>19</nbDocks></station><station><id>169</id><name>Porchester Place, Paddington</name><terminalName>003477</terminalName><lat>51.51474612</lat><long>-0.165164288</long><installed>true</installed><locked>false</locked><installDate>1279289760000</installDate><removalDate></removalDate><temporary>false</temporary><nbBikes>9</nbBikes><nbEmptyDocks>8</nbEmptyDocks><nbDocks>18</nbDocks></station><station><id>170</id><name>Hardwick Street, Clerkenwell</name><terminalName>001057</terminalName><lat>51.52784273</lat><long>-0.108068155</long><installed>true</installed><locked>false</locked><installDate>1279290180000</installDate><removalDate></removalDate><temporary>false</temporary><nbBikes>21</nbBikes><nbEmptyDocks>9</nbEmptyDocks><nbDocks>30</nbDocks></station><station><id>171</id><name>Collingham Gardens, Earl's Court</name><terminalName>003459</terminalName><lat>51.4916156</lat><long>-0.186753859</long><installed>true</installed><locked>false</locked><installDate>1279291200000</installDate><removalDate></removalDate><temporary>false</temporary><nbBikes>9</nbBikes><nbEmptyDocks>4</nbEmptyDocks><nbDocks>14</nbDocks></station><station><id>172</id><name>Sumner Place, South Kensington</name><terminalName>001124</terminalName><lat>51.49121192</lat><long>-0.173715911</long><installed>true</installed><locked>false</locked><installDate>1279291500000</installDate><removalDate></removalDate><temporary>false</temporary><nbBikes>16</nbBikes><nbEmptyDocks>1</nbEmptyDocks><nbDocks>19</nbDocks></station><station><id>173</id><name>Waterloo Road, South Bank</name><terminalName>001176</terminalName><lat>51.50486</lat><long>-0.113001</long><installed>true</installed><locked>false</locked><installDate>1279292700000</installDate><removalDate></removalDate><temporary>false</temporary><nbBikes>5</nbBikes><nbEmptyDocks>10</nbEmptyDocks><nbDocks>15</nbDocks></station><station><id>174</id><name>Strand, Strand</name><terminalName>001100</terminalName><lat>51.512529</lat><long>-0.115163</long><installed>true</installed><locked>false</locked><installDate>1279295940000</installDate><removalDate></removalDate><temporary>false</temporary><nbBikes>2</nbBikes><nbEmptyDocks>34</nbEmptyDocks><nbDocks>36</nbDocks></station><station><id>175</id><name>Worship Street, Shoreditch</name><terminalName>000997</terminalName><lat>51.521668</lat><long>-0.079608554</long><installed>true</installed><locked>false</locked><installDate>1529674980000</installDate><removalDate></removalDate><temporary>false</temporary><nbBikes>6</nbBikes><nbEmptyDocks>43</nbEmptyDocks><nbDocks>51</nbDocks></station><station><id>176</id><name>Gloucester Terrace, Bayswater</name><terminalName>001173</terminalName><lat>51.51791921</lat><long>-0.188098863</long><installed>true</installed><locked>false</locked><installDate>1279297560000</installDate><removalDate></removalDate><temporary>false</temporary><nbBikes>6</nbBikes><nbEmptyDocks>15</nbEmptyDocks><nbDocks>23</nbDocks></station><station><id>177</id><name>Ashley Place, Victoria</name><terminalName>001122</terminalName><lat>51.49616092</lat><long>-0.140947636</long><installed>true</installed><locked>false</locked><installDate>1279297740000</installDate><removalDate></removalDate><temporary>false</temporary><nbBikes>2</nbBikes><nbEmptyDocks>22</nbEmptyDocks><nbDocks>25</nbDocks></station><station><id>178</id><name>Warwick Square, Pimlico</name><terminalName>003460</terminalName><lat>51.48985626</lat><long>-0.141923621</long><installed>true</installed><locked>false</locked><installDate>1279297920000</installDate><removalDate></removalDate><temporary>false</temporary><nbBikes>5</nbBikes><nbEmptyDocks>14</nbEmptyDocks><nbDocks>19</nbDocks></station><station><id>180</id><name>North Audley Street, Mayfair</name><terminalName>001126</terminalName><lat>51.5129118</lat><long>-0.153645496</long><installed>true</installed><locked>false</locked><installDate>1279298220000</installDate><removalDate></removalDate><temporary>false</temporary><nbBikes>9</nbBikes><nbEmptyDocks>8</nbEmptyDocks><nbDocks>17</nbDocks></station><station><id>181</id><name>Belgrave Square, Belgravia</name><terminalName>003473</terminalName><lat>51.49941247</lat><long>-0.152317537</long><installed>true</installed><locked>false</locked><installDate>1279298460000</installDate><removalDate></removalDate><temporary>false</temporary><nbBikes>8</nbBikes><nbEmptyDocks>13</nbEmptyDocks><nbDocks>21</nbDocks></station><station><id>182</id><name>Bell Street , Marylebone</name><terminalName>001166</terminalName><lat>51.52202903</lat><long>-0.165842551</long><installed>true</installed><locked>false</locked><installDate>1279363140000</installDate><removalDate></removalDate><temporary>false</temporary><nbBikes>5</nbBikes><nbEmptyDocks>13</nbEmptyDocks><nbDocks>18</nbDocks></station><station><id>183</id><name>Riverlight North, Nine Elms</name><terminalName>001165</terminalName><lat>51.482362</lat><long>-0.13612398</long><installed>true</installed><locked>false</locked><installDate>1279364160000</installDate><removalDate></removalDate><temporary>false</temporary><nbBikes>6</nbBikes><nbEmptyDocks>16</nbEmptyDocks><nbDocks>24</nbDocks></station><station><id>184</id><name>Portland Place, Marylebone</name><terminalName>001164</terminalName><lat>51.52071513</lat><long>-0.14521173</long><installed>true</installed><locked>false</locked><installDate>1279364280000</installDate><removalDate></removalDate><temporary>false</temporary><nbBikes>11</nbBikes><nbEmptyDocks>23</nbEmptyDocks><nbDocks>34</nbDocks></station><station><id>185</id><name>Alderney Street, Pimlico</name><terminalName>001174</terminalName><lat>51.48805753</lat><long>-0.140741432</long><installed>true</installed><locked>false</locked><installDate>1279365360000</installDate><removalDate></removalDate><temporary>false</temporary><nbBikes>1</nbBikes><nbEmptyDocks>13</nbEmptyDocks><nbDocks>14</nbDocks></station><station><id>186</id><name>South Wharf Road, Paddington</name><terminalName>001167</terminalName><lat>51.51733558</lat><long>-0.175810943</long><installed>true</installed><locked>false</locked><installDate>1279365480000</installDate><removalDate></removalDate><temporary>false</temporary><nbBikes>10</nbBikes><nbEmptyDocks>4</nbEmptyDocks><nbDocks>16</nbDocks></station><station><id>187</id><name>Queen's Gate (South), South Kensington</name><terminalName>001172</terminalName><lat>51.49247977</lat><long>-0.178433004</long><installed>true</installed><locked>false</locked><installDate>1279365720000</installDate><removalDate></removalDate><temporary>false</temporary><nbBikes>9</nbBikes><nbEmptyDocks>16</nbEmptyDocks><nbDocks>25</nbDocks></station><station><id>188</id><name>Nutford Place, Marylebone</name><terminalName>001112</terminalName><lat>51.5165179</lat><long>-0.164393768</long><installed>true</installed><locked>false</locked><installDate>1279376760000</installDate><removalDate></removalDate><temporary>false</temporary><nbBikes>12</nbBikes><nbEmptyDocks>6</nbEmptyDocks><nbDocks>18</nbDocks></station><station><id>189</id><name>Claremont Square, Angel</name><terminalName>001104</terminalName><lat>51.53166681</lat><long>-0.109914711</long><installed>true</installed><locked>false</locked><installDate>1279377180000</installDate><removalDate></removalDate><temporary>false</temporary><nbBikes>1</nbBikes><nbEmptyDocks>16</nbEmptyDocks><nbDocks>18</nbDocks></station><station><id>190</id><name>Rampayne Street, Pimlico</name><terminalName>001106</terminalName><lat>51.48997562</lat><long>-0.132845681</long><installed>true</installed><locked>false</locked><installDate>1279381080000</installDate><removalDate></removalDate><temporary>false</temporary><nbBikes>3</nbBikes><nbEmptyDocks>18</nbEmptyDocks><nbDocks>21</nbDocks></station><station><id>191</id><name>Hyde Park Corner, Hyde Park</name><terminalName>001075</terminalName><lat>51.50311799</lat><long>-0.153520935</long><installed>true</installed><locked>false</locked><installDate>1279383120000</installDate><removalDate></removalDate><temporary>false</temporary><nbBikes>18</nbBikes><nbEmptyDocks>11</nbEmptyDocks><nbDocks>36</nbDocks></station><station><id>192</id><name>Wardour Street, Soho</name><terminalName>001163</terminalName><lat>51.51251523</lat><long>-0.133201961</long><installed>true</installed><locked>false</locked><installDate>1279383300000</installDate><removalDate></removalDate><temporary>false</temporary><nbBikes>6</nbBikes><nbEmptyDocks>8</nbEmptyDocks><nbDocks>16</nbDocks></station><station><id>193</id><name>Bankside Mix, Bankside</name><terminalName>000963</terminalName><lat>51.50581776</lat><long>-0.100186337</long><installed>true</installed><locked>false</locked><installDate>1279392479356</installDate><removalDate></removalDate><temporary>false</temporary><nbBikes>16</nbBikes><nbEmptyDocks>39</nbEmptyDocks><nbDocks>60</nbDocks></station><station><id>194</id><name>Hop Exchange, The Borough</name><terminalName>000960</terminalName><lat>51.50462759</lat><long>-0.091773776</long><installed>true</installed><locked>false</locked><installDate>1279392479395</installDate><removalDate></removalDate><temporary>false</temporary><nbBikes>18</nbBikes><nbEmptyDocks>37</nbEmptyDocks><nbDocks>56</nbDocks></station><station><id>195</id><name>Milroy Walk, South Bank</name><terminalName>000959</terminalName><lat>51.50724437</lat><long>-0.106237501</long><installed>true</installed><locked>false</locked><installDate>1279392479432</installDate><removalDate></removalDate><temporary>false</temporary><nbBikes>21</nbBikes><nbEmptyDocks>9</nbEmptyDocks><nbDocks>30</nbDocks></station><station><id>196</id><name>Union Street, The Borough</name><terminalName>000961</terminalName><lat>51.50368837</lat><long>-0.098497684</long><installed>true</installed><locked>false</locked><installDate>1279392479471</installDate><removalDate></removalDate><temporary>false</temporary><nbBikes>6</nbBikes><nbEmptyDocks>9</nbEmptyDocks><nbDocks>17</nbDocks></station><station><id>197</id><name>Stamford Street, South Bank</name><terminalName>000962</terminalName><lat>51.50556905</lat><long>-0.111606696</long><installed>true</installed><locked>false</locked><installDate>1279392479520</installDate><removalDate></removalDate><temporary>false</temporary><nbBikes>13</nbBikes><nbEmptyDocks>14</nbEmptyDocks><nbDocks>27</nbDocks></station><station><id>199</id><name>Great Tower Street, Monument</name><terminalName>001080</terminalName><lat>51.51048489</lat><long>-0.082989638</long><installed>true</installed><locked>false</locked><installDate>1279441800000</installDate><removalDate></removalDate><temporary>false</temporary><nbBikes>5</nbBikes><nbEmptyDocks>17</nbEmptyDocks><nbDocks>24</nbDocks></station><station><id>200</id><name>LMU Commercial Road, Whitechapel</name><terminalName>001105</terminalName><lat>51.51492456</lat><long>-0.066078037</long><installed>true</installed><locked>false</locked><installDate>1279441920000</installDate><removalDate></removalDate><temporary>false</temporary><nbBikes>12</nbBikes><nbEmptyDocks>2</nbEmptyDocks><nbDocks>14</nbDocks></station><station><id>201</id><name>Dorset Square, Marylebone</name><terminalName>001162</terminalName><lat>51.5225965</lat><long>-0.161113413</long><installed>true</installed><locked>false</locked><installDate>1279444080000</installDate><removalDate></removalDate><temporary>false</temporary><nbBikes>3</nbBikes><nbEmptyDocks>11</nbEmptyDocks><nbDocks>16</nbDocks></station><station><id>202</id><name>Leman Street, Aldgate</name><terminalName>001102</terminalName><lat>51.51236389</lat><long>-0.06954201</long><installed>true</installed><locked>false</locked><installDate>1279444320000</installDate><removalDate></removalDate><temporary>false</temporary><nbBikes>9</nbBikes><nbEmptyDocks>28</nbEmptyDocks><nbDocks>37</nbDocks></station><station><id>203</id><name>West Smithfield Rotunda, Farringdon</name><terminalName>001040</terminalName><lat>51.51821864</lat><long>-0.100791005</long><installed>true</installed><locked>false</locked><installDate>1279445580000</installDate><removalDate></removalDate><temporary>false</temporary><nbBikes>8</nbBikes><nbEmptyDocks>6</nbEmptyDocks><nbDocks>15</nbDocks></station><station><id>204</id><name>Margery Street, Clerkenwell</name><terminalName>003468</terminalName><lat>51.52659961</lat><long>-0.112432615</long><installed>true</installed><locked>false</locked><installDate>1279466640000</installDate><removalDate></removalDate><temporary>false</temporary><nbBikes>5</nbBikes><nbEmptyDocks>12</nbEmptyDocks><nbDocks>19</nbDocks></station><station><id>206</id><name>New Road 1 , Whitechapel</name><terminalName>001171</terminalName><lat>51.518154</lat><long>-0.062697</long><installed>true</installed><locked>false</locked><installDate>1279471380000</installDate><removalDate></removalDate><temporary>false</temporary><nbBikes>20</nbBikes><nbEmptyDocks>16</nbEmptyDocks><nbDocks>36</nbDocks></station><station><id>207</id><name>Grosvenor Crescent, Belgravia</name><terminalName>001169</terminalName><lat>51.50135267</lat><long>-0.153194766</long><installed>true</installed><locked>false</locked><installDate>1279558140000</installDate><removalDate></removalDate><temporary>false</temporary><nbBikes>5</nbBikes><nbEmptyDocks>12</nbEmptyDocks><nbDocks>18</nbDocks></station><station><id>208</id><name>Mallory Street, Marylebone</name><terminalName>001175</terminalName><lat>51.52505151</lat><long>-0.166304359</long><installed>true</installed><locked>false</locked><installDate>1279472580000</installDate><removalDate></removalDate><temporary>false</temporary><nbBikes>15</nbBikes><nbEmptyDocks>5</nbEmptyDocks><nbDocks>20</nbDocks></station><station><id>209</id><name>Denyer Street, Knightsbridge</name><terminalName>003454</terminalName><lat>51.49358391</lat><long>-0.165101392</long><installed>true</installed><locked>false</locked><installDate>1279529160000</installDate><removalDate></removalDate><temporary>false</temporary><nbBikes>14</nbBikes><nbEmptyDocks>16</nbEmptyDocks><nbDocks>30</nbDocks></station><station><id>210</id><name>Hinde Street, Marylebone</name><terminalName>003476</terminalName><lat>51.51681444</lat><long>-0.151926305</long><installed>true</installed><locked>false</locked><installDate>1279535160000</installDate><removalDate></removalDate><temporary>false</temporary><nbBikes>7</nbBikes><nbEmptyDocks>13</nbEmptyDocks><nbDocks>21</nbDocks></station><station><id>211</id><name>Cadogan Place, Knightsbridge</name><terminalName>003469</terminalName><lat>51.49464523</lat><long>-0.158105512</long><installed>true</installed><locked>false</locked><installDate>1279535820000</installDate><removalDate></removalDate><temporary>false</temporary><nbBikes>8</nbBikes><nbEmptyDocks>26</nbEmptyDocks><nbDocks>34</nbDocks></station><station><id>212</id><name>Campden Hill Road, Notting Hill</name><terminalName>003487</terminalName><lat>51.50658458</lat><long>-0.199004026</long><installed>true</installed><locked>false</locked><installDate>1279536840000</installDate><removalDate></removalDate><temporary>false</temporary><nbBikes>6</nbBikes><nbEmptyDocks>11</nbEmptyDocks><nbDocks>17</nbDocks></station><station><id>213</id><name>Wellington Arch, Hyde Park</name><terminalName>001109</terminalName><lat>51.50274025</lat><long>-0.149569201</long><installed>true</installed><locked>false</locked><installDate>1279537020000</installDate><removalDate></removalDate><temporary>false</temporary><nbBikes>19</nbBikes><nbEmptyDocks>13</nbEmptyDocks><nbDocks>36</nbDocks></station><station><id>214</id><name>Endsleigh Gardens, Euston</name><terminalName>001079</terminalName><lat>51.52683806</lat><long>-0.130504336</long><installed>true</installed><locked>false</locked><installDate>1279537200000</installDate><removalDate></removalDate><temporary>false</temporary><nbBikes>11</nbBikes><nbEmptyDocks>21</nbEmptyDocks><nbDocks>32</nbDocks></station><station><id>215</id><name>Moorfields, Moorgate</name><terminalName>001092</terminalName><lat>51.51906932</lat><long>-0.088285377</long><installed>true</installed><locked>false</locked><installDate>1279537380000</installDate><removalDate></removalDate><temporary>false</temporary><nbBikes>8</nbBikes><nbEmptyDocks>46</nbEmptyDocks><nbDocks>54</nbDocks></station><station><id>216</id><name>Old Brompton Road, South Kensington</name><terminalName>003479</terminalName><lat>51.49094565</lat><long>-0.181190899</long><installed>true</installed><locked>false</locked><installDate>1279537920000</installDate><removalDate></removalDate><temporary>false</temporary><nbBikes>19</nbBikes><nbEmptyDocks>10</nbEmptyDocks><nbDocks>30</nbDocks></station><station><id>217</id><name>Wormwood Street, Liverpool Street</name><terminalName>002587</terminalName><lat>51.51615461</lat><long>-0.082422399</long><installed>true</installed><locked>false</locked><installDate>1279538040000</installDate><removalDate></removalDate><temporary>false</temporary><nbBikes>5</nbBikes><nbEmptyDocks>11</nbEmptyDocks><nbDocks>16</nbDocks></station><station><id>218</id><name>St. Luke's Church, Chelsea</name><terminalName>003486</terminalName><lat>51.48971651</lat><long>-0.170194408</long><installed>true</installed><locked>false</locked><installDate>1279543740000</installDate><removalDate></removalDate><temporary>false</temporary><nbBikes>9</nbBikes><nbEmptyDocks>10</nbEmptyDocks><nbDocks>20</nbDocks></station><station><id>219</id><name>Bramham Gardens, Earl's Court</name><terminalName>001183</terminalName><lat>51.49016361</lat><long>-0.19039362</long><installed>true</installed><locked>false</locked><installDate>1279545900000</installDate><removalDate></removalDate><temporary>false</temporary><nbBikes>16</nbBikes><nbEmptyDocks>12</nbEmptyDocks><nbDocks>29</nbDocks></station><station><id>220</id><name>Chelsea Green, Chelsea</name><terminalName>001179</terminalName><lat>51.49066456</lat><long>-0.166485083</long><installed>true</installed><locked>false</locked><installDate>1279546320000</installDate><removalDate></removalDate><temporary>false</temporary><nbBikes>2</nbBikes><nbEmptyDocks>24</nbEmptyDocks><nbDocks>27</nbDocks></station><station><id>221</id><name>Horseferry Road, Westminster</name><terminalName>001170</terminalName><lat>51.49481649</lat><long>-0.13045856</long><installed>true</installed><locked>false</locked><installDate>1279552200000</installDate><removalDate></removalDate><temporary>false</temporary><nbBikes>8</nbBikes><nbEmptyDocks>8</nbEmptyDocks><nbDocks>16</nbDocks></station><station><id>222</id><name>Knightsbridge, Hyde Park</name><terminalName>001101</terminalName><lat>51.50275704</lat><long>-0.155349725</long><installed>true</installed><locked>false</locked><installDate>1279614120000</installDate><removalDate></removalDate><temporary>false</temporary><nbBikes>24</nbBikes><nbEmptyDocks>18</nbEmptyDocks><nbDocks>43</nbDocks></station><station><id>223</id><name>Rodney Road , Walworth</name><terminalName>003481</terminalName><lat>51.49148474</lat><long>-0.090220911</long><installed>true</installed><locked>false</locked><installDate>1279614420000</installDate><removalDate></removalDate><temporary>false</temporary><nbBikes>18</nbBikes><nbEmptyDocks>6</nbEmptyDocks><nbDocks>24</nbDocks></station><station><id>224</id><name>Queensway, Kensington Gardens</name><terminalName>001150</terminalName><lat>51.51031</lat><long>-0.18740235</long><installed>true</installed><locked>false</locked><installDate>1279615020000</installDate><removalDate></removalDate><temporary>false</temporary><nbBikes>4</nbBikes><nbEmptyDocks>13</nbEmptyDocks><nbDocks>17</nbDocks></station><station><id>225</id><name>Notting Hill Gate Station, Notting Hill</name><terminalName>001182</terminalName><lat>51.50935342</lat><long>-0.196422</long><installed>true</installed><locked>false</locked><installDate>1279616280000</installDate><removalDate></removalDate><temporary>false</temporary><nbBikes>15</nbBikes><nbEmptyDocks>15</nbEmptyDocks><nbDocks>30</nbDocks></station><station><id>226</id><name>Charles II Street, West End</name><terminalName>003488</terminalName><lat>51.50844614</lat><long>-0.131961389</long><installed>true</installed><locked>false</locked><installDate>1279616520000</installDate><removalDate></removalDate><temporary>false</temporary><nbBikes>4</nbBikes><nbEmptyDocks>20</nbEmptyDocks><nbDocks>24</nbDocks></station><station><id>227</id><name>Great Percy Street, Clerkenwell</name><terminalName>003470</terminalName><lat>51.52891573</lat><long>-0.115480888</long><installed>true</installed><locked>false</locked><installDate>1279616700000</installDate><removalDate></removalDate><temporary>false</temporary><nbBikes>16</nbBikes><nbEmptyDocks>6</nbEmptyDocks><nbDocks>23</nbDocks></station><station><id>228</id><name>St. James's Square, St. James's</name><terminalName>001067</terminalName><lat>51.50742485</lat><long>-0.134621209</long><installed>true</installed><locked>false</locked><installDate>1279616880000</installDate><removalDate></removalDate><temporary>false</temporary><nbBikes>21</nbBikes><nbEmptyDocks>18</nbEmptyDocks><nbDocks>40</nbDocks></station><station><id>229</id><name>Whitehall Place, Strand</name><terminalName>001151</terminalName><lat>51.50654321</lat><long>-0.123179697</long><installed>true</installed><locked>false</locked><installDate>1279617780000</installDate><removalDate></removalDate><temporary>false</temporary><nbBikes>14</nbBikes><nbEmptyDocks>9</nbEmptyDocks><nbDocks>24</nbDocks></station><station><id>230</id><name>Poured Lines, Bankside</name><terminalName>001144</terminalName><lat>51.50669284</lat><long>-0.103137426</long><installed>true</installed><locked>false</locked><installDate>1279618020000</installDate><removalDate></removalDate><temporary>false</temporary><nbBikes>5</nbBikes><nbEmptyDocks>26</nbEmptyDocks><nbDocks>31</nbDocks></station><station><id>231</id><name>Queen's Gate (Central), South Kensington</name><terminalName>001089</terminalName><lat>51.49396755</lat><long>-0.17873226</long><installed>true</installed><locked>false</locked><installDate>1279622820000</installDate><removalDate></removalDate><temporary>false</temporary><nbBikes>0</nbBikes><nbEmptyDocks>31</nbEmptyDocks><nbDocks>31</nbDocks></station><station><id>232</id><name>Carey Street, Holborn</name><terminalName>001139</terminalName><lat>51.51501025</lat><long>-0.112753217</long><installed>true</installed><locked>false</locked><installDate>1279623240000</installDate><removalDate></removalDate><temporary>false</temporary><nbBikes>1</nbBikes><nbEmptyDocks>15</nbEmptyDocks><nbDocks>16</nbDocks></station><station><id>233</id><name>Pall Mall East, West End</name><terminalName>001153</terminalName><lat>51.50777049</lat><long>-0.130699733</long><installed>true</installed><locked>false</locked><installDate>1279624260000</installDate><removalDate></removalDate><temporary>false</temporary><nbBikes>3</nbBikes><nbEmptyDocks>19</nbEmptyDocks><nbDocks>22</nbDocks></station><station><id>234</id><name>Liverpool Road (N1 Centre), Angel</name><terminalName>001081</terminalName><lat>51.53450449</lat><long>-0.106992706</long><installed>true</installed><locked>false</locked><installDate>1279624680000</installDate><removalDate></removalDate><temporary>false</temporary><nbBikes>24</nbBikes><nbEmptyDocks>0</nbEmptyDocks><nbDocks>24</nbDocks></station><station><id>235</id><name>Kennington Road  , Vauxhall</name><terminalName>001154</terminalName><lat>51.49571828</lat><long>-0.110889274</long><installed>true</installed><locked>false</locked><installDate>1279625640000</installDate><removalDate></removalDate><temporary>false</temporary><nbBikes>5</nbBikes><nbEmptyDocks>29</nbEmptyDocks><nbDocks>36</nbDocks></station><station><id>236</id><name>Fashion Street, Whitechapel</name><terminalName>003483</terminalName><lat>51.51838043</lat><long>-0.073438925</long><installed>true</installed><locked>false</locked><installDate>1279625940000</installDate><removalDate></removalDate><temporary>false</temporary><nbBikes>14</nbBikes><nbEmptyDocks>16</nbEmptyDocks><nbDocks>30</nbDocks></station><station><id>237</id><name>Dock Street, Wapping</name><terminalName>003467</terminalName><lat>51.5097860151</lat><long>-0.0681619805156</long><installed>true</installed><locked>false</locked><installDate>1279799040000</installDate><removalDate></removalDate><temporary>false</temporary><nbBikes>18</nbBikes><nbEmptyDocks>12</nbEmptyDocks><nbDocks>30</nbDocks></station><station><id>238</id><name>Frampton Street, Paddington</name><terminalName>001099</terminalName><lat>51.5233534</lat><long>-0.175116099</long><installed>true</installed><locked>false</locked><installDate>1279627920000</installDate><removalDate></removalDate><temporary>false</temporary><nbBikes>22</nbBikes><nbEmptyDocks>10</nbEmptyDocks><nbDocks>32</nbDocks></station><station><id>239</id><name>Warren Street Station, Euston</name><terminalName>001090</terminalName><lat>51.52443845</lat><long>-0.138019439</long><installed>true</installed><locked>false</locked><installDate>1279628160000</installDate><removalDate></removalDate><temporary>false</temporary><nbBikes>11</nbBikes><nbEmptyDocks>15</nbEmptyDocks><nbDocks>26</nbDocks></station><station><id>240</id><name>Colombo Street, Southwark</name><terminalName>003472</terminalName><lat>51.50545935</lat><long>-0.10569204</long><installed>true</installed><locked>false</locked><installDate>1279628280000</installDate><removalDate></removalDate><temporary>false</temporary><nbBikes>2</nbBikes><nbEmptyDocks>11</nbEmptyDocks><nbDocks>14</nbDocks></station><station><id>242</id><name>Beaumont Street, Marylebone</name><terminalName>003482</terminalName><lat>51.52200801</lat><long>-0.151359288</long><installed>true</installed><locked>false</locked><installDate>1279628640000</installDate><removalDate></removalDate><temporary>false</temporary><nbBikes>0</nbBikes><nbEmptyDocks>23</nbEmptyDocks><nbDocks>23</nbDocks></station><station><id>243</id><name>Gloucester Street, Pimlico</name><terminalName>001103</terminalName><lat>51.49096258</lat><long>-0.139625122</long><installed>true</installed><locked>false</locked><installDate>1279628940000</installDate><removalDate></removalDate><temporary>false</temporary><nbBikes>20</nbBikes><nbEmptyDocks>5</nbEmptyDocks><nbDocks>25</nbDocks></station><station><id>244</id><name>Earnshaw Street , Covent Garden</name><terminalName>001145</terminalName><lat>51.51611887</lat><long>-0.128585022</long><installed>true</installed><locked>false</locked><installDate>1279629240000</installDate><removalDate></removalDate><temporary>false</temporary><nbBikes>5</nbBikes><nbEmptyDocks>13</nbEmptyDocks><nbDocks>18</nbDocks></station><station><id>245</id><name>Grosvenor Road, Pimlico</name><terminalName>001140</terminalName><lat>51.4853572</lat><long>-0.142207481</long><installed>true</installed><locked>false</locked><installDate>1279629660000</installDate><removalDate></removalDate><temporary>false</temporary><nbBikes>8</nbBikes><nbEmptyDocks>21</nbEmptyDocks><nbDocks>29</nbDocks></station><station><id>246</id><name>Berry Street, Clerkenwell</name><terminalName>001159</terminalName><lat>51.52285301</lat><long>-0.099994052</long><installed>true</installed><locked>false</locked><installDate>1279639740000</installDate><removalDate></removalDate><temporary>false</temporary><nbBikes>8</nbBikes><nbEmptyDocks>32</nbEmptyDocks><nbDocks>41</nbDocks></station><station><id>247</id><name>St. John's Wood Church, The Regent's Park</name><terminalName>001091</terminalName><lat>51.530529</lat><long>-0.167515</long><installed>true</installed><locked>false</locked><installDate>1279639920000</installDate><removalDate></removalDate><temporary>false</temporary><nbBikes>21</nbBikes><nbEmptyDocks>29</nbEmptyDocks><nbDocks>50</nbDocks></station><station><id>248</id><name>Triangle Car Park, Hyde Park</name><terminalName>001088</terminalName><lat>51.50645179</lat><long>-0.170279555</long><installed>true</installed><locked>false</locked><installDate>1279640160000</installDate><removalDate></removalDate><temporary>false</temporary><nbBikes>25</nbBikes><nbEmptyDocks>0</nbEmptyDocks><nbDocks>27</nbDocks></station><station><id>249</id><name>Harper Road, The Borough</name><terminalName>001137</terminalName><lat>51.49859784</lat><long>-0.096191134</long><installed>true</installed><locked>false</locked><installDate>1279640400000</installDate><removalDate></removalDate><temporary>false</temporary><nbBikes>21</nbBikes><nbEmptyDocks>19</nbEmptyDocks><nbDocks>42</nbDocks></station><station><id>250</id><name>Royal Avenue 1, Chelsea</name><terminalName>003440</terminalName><lat>51.489932</lat><long>-0.162727</long><installed>true</installed><locked>false</locked><installDate>1279641000000</installDate><removalDate></removalDate><temporary>false</temporary><nbBikes>10</nbBikes><nbEmptyDocks>0</nbEmptyDocks><nbDocks>10</nbDocks></station><station><id>251</id><name>Brushfield Street, Liverpool Street</name><terminalName>001161</terminalName><lat>51.518908</lat><long>-0.079249</long><installed>true</installed><locked>false</locked><installDate>1279700160000</installDate><removalDate></removalDate><temporary>false</temporary><nbBikes>16</nbBikes><nbEmptyDocks>16</nbEmptyDocks><nbDocks>34</nbDocks></station><station><id>252</id><name>Jubilee Gardens, South Bank</name><terminalName>001111</terminalName><lat>51.5046364</lat><long>-0.116542278</long><installed>true</installed><locked>false</locked><installDate>1279700640000</installDate><removalDate></removalDate><temporary>false</temporary><nbBikes>12</nbBikes><nbEmptyDocks>17</nbEmptyDocks><nbDocks>30</nbDocks></station><station><id>253</id><name>Shoreditch Park, Hoxton</name><terminalName>001051</terminalName><lat>51.53404294</lat><long>-0.086379717</long><installed>true</installed><locked>false</locked><installDate>1279700820000</installDate><removalDate></removalDate><temporary>false</temporary><nbBikes>18</nbBikes><nbEmptyDocks>10</nbEmptyDocks><nbDocks>30</nbDocks></station><station><id>254</id><name>Chadwell Street, Angel</name><terminalName>003471</terminalName><lat>51.53051587</lat><long>-0.106408455</long><installed>true</installed><locked>false</locked><installDate>1279700940000</installDate><removalDate></removalDate><temporary>false</temporary><nbBikes>11</nbBikes><nbEmptyDocks>7</nbEmptyDocks><nbDocks>18</nbDocks></station><station><id>255</id><name>Clifton Road, Maida Vale</name><terminalName>001147</terminalName><lat>51.52557531</lat><long>-0.179592915</long><installed>true</installed><locked>false</locked><installDate>1279702560000</installDate><removalDate></removalDate><temporary>false</temporary><nbBikes>16</nbBikes><nbEmptyDocks>6</nbEmptyDocks><nbDocks>22</nbDocks></station><station><id>256</id><name>Houghton Street, Strand</name><terminalName>003484</terminalName><lat>51.51362054</lat><long>-0.116764211</long><installed>true</installed><locked>false</locked><installDate>1279708020000</installDate><removalDate></removalDate><temporary>false</temporary><nbBikes>2</nbBikes><nbEmptyDocks>13</nbEmptyDocks><nbDocks>15</nbDocks></station><station><id>257</id><name>Westminster University, Marylebone</name><terminalName>001194</terminalName><lat>51.52248185</lat><long>-0.154907218</long><installed>true</installed><locked>false</locked><installDate>1279708140000</installDate><removalDate></removalDate><temporary>false</temporary><nbBikes>9</nbBikes><nbEmptyDocks>7</nbEmptyDocks><nbDocks>16</nbDocks></station><station><id>259</id><name>Bourne Street, Belgravia</name><terminalName>001180</terminalName><lat>51.490959</lat><long>-0.1532331</long><installed>true</installed><locked>false</locked><installDate>1279709100000</installDate><removalDate></removalDate><temporary>false</temporary><nbBikes>2</nbBikes><nbEmptyDocks>13</nbEmptyDocks><nbDocks>16</nbDocks></station><station><id>260</id><name>Broadwick Street, Soho</name><terminalName>003489</terminalName><lat>51.5136846</lat><long>-0.135580879</long><installed>true</installed><locked>false</locked><installDate>1279711020000</installDate><removalDate></removalDate><temporary>false</temporary><nbBikes>6</nbBikes><nbEmptyDocks>11</nbEmptyDocks><nbDocks>18</nbDocks></station><station><id>261</id><name>Princes Square, Bayswater</name><terminalName>003491</terminalName><lat>51.5134891</lat><long>-0.191351186</long><installed>true</installed><locked>false</locked><installDate>1279711200000</installDate><removalDate></removalDate><temporary>false</temporary><nbBikes>5</nbBikes><nbEmptyDocks>10</nbEmptyDocks><nbDocks>15</nbDocks></station><station><id>262</id><name>LSBU (Borough Road), Elephant &amp; Castle</name><terminalName>001095</terminalName><lat>51.49874469</lat><long>-0.103132904</long><installed>true</installed><locked>false</locked><installDate>1279711620000</installDate><removalDate></removalDate><temporary>false</temporary><nbBikes>1</nbBikes><nbEmptyDocks>34</nbEmptyDocks><nbDocks>35</nbDocks></station><station><id>263</id><name>St. Mary Axe, Aldgate</name><terminalName>001184</terminalName><lat>51.51422502</lat><long>-0.080660083</long><installed>true</installed><locked>false</locked><installDate>1279712160000</installDate><removalDate></removalDate><temporary>false</temporary><nbBikes>5</nbBikes><nbEmptyDocks>16</nbEmptyDocks><nbDocks>21</nbDocks></station><station><id>264</id><name>Tysoe Street, Clerkenwell</name><terminalName>001146</terminalName><lat>51.52644342</lat><long>-0.109256828</long><installed>true</installed><locked>false</locked><installDate>1279712520000</installDate><removalDate></removalDate><temporary>false</temporary><nbBikes>11</nbBikes><nbEmptyDocks>9</nbEmptyDocks><nbDocks>20</nbDocks></station><station><id>265</id><name>Southwick Street, Paddington</name><terminalName>003490</terminalName><lat>51.51595344</lat><long>-0.169249375</long><installed>true</installed><locked>false</locked><installDate>1279714320000</installDate><removalDate></removalDate><temporary>false</temporary><nbBikes>9</nbBikes><nbEmptyDocks>8</nbEmptyDocks><nbDocks>17</nbDocks></station><station><id>266</id><name>Queen's Gate (North), Kensington</name><terminalName>001204</terminalName><lat>51.50102668</lat><long>-0.180246101</long><installed>true</installed><locked>false</locked><installDate>1279714560000</installDate><removalDate></removalDate><temporary>false</temporary><nbBikes>0</nbBikes><nbEmptyDocks>40</nbEmptyDocks><nbDocks>41</nbDocks></station><station><id>267</id><name>Regency Street, Westminster</name><terminalName>001155</terminalName><lat>51.49206037</lat><long>-0.132224622</long><installed>true</installed><locked>false</locked><installDate>1279714740000</installDate><removalDate></removalDate><temporary>false</temporary><nbBikes>1</nbBikes><nbEmptyDocks>21</nbEmptyDocks><nbDocks>22</nbDocks></station><station><id>268</id><name>Belgrave Road, Victoria</name><terminalName>001087</terminalName><lat>51.49320445</lat><long>-0.144132875</long><installed>true</installed><locked>false</locked><installDate>1279714920000</installDate><removalDate></removalDate><temporary>false</temporary><nbBikes>4</nbBikes><nbEmptyDocks>25</nbEmptyDocks><nbDocks>29</nbDocks></station><station><id>269</id><name>Empire Square, The Borough</name><terminalName>001209</terminalName><lat>51.50082346</lat><long>-0.089740764</long><installed>true</installed><locked>false</locked><installDate>1279715100000</installDate><removalDate></removalDate><temporary>false</temporary><nbBikes>11</nbBikes><nbEmptyDocks>35</nbEmptyDocks><nbDocks>46</nbDocks></station><station><id>270</id><name>Kennington Lane Rail Bridge, Vauxhall</name><terminalName>001190</terminalName><lat>51.4863434</lat><long>-0.122492418</long><installed>true</installed><locked>false</locked><installDate>1279720380000</installDate><removalDate></removalDate><temporary>false</temporary><nbBikes>22</nbBikes><nbEmptyDocks>9</nbEmptyDocks><nbDocks>31</nbDocks></station><station><id>271</id><name>London Zoo,  The Regent's Park</name><terminalName>001136</terminalName><lat>51.53583617</lat><long>-0.156285395</long><installed>true</installed><locked>false</locked><installDate>1279720920000</installDate><removalDate></removalDate><temporary>false</temporary><nbBikes>16</nbBikes><nbEmptyDocks>15</nbEmptyDocks><nbDocks>32</nbDocks></station><station><id>272</id><name>Baylis Road, Waterloo</name><terminalName>001133</terminalName><lat>51.50144456</lat><long>-0.110699309</long><installed>true</installed><locked>false</locked><installDate>1279721220000</installDate><removalDate></removalDate><temporary>false</temporary><nbBikes>7</nbBikes><nbEmptyDocks>15</nbEmptyDocks><nbDocks>22</nbDocks></station><station><id>273</id><name>Belvedere Road 1, South Bank</name><terminalName>001186</terminalName><lat>51.50613324</lat><long>-0.114686385</long><installed>true</installed><locked>false</locked><installDate>1279721400000</installDate><removalDate></removalDate><temporary>false</temporary><nbBikes>18</nbBikes><nbEmptyDocks>20</nbEmptyDocks><nbDocks>38</nbDocks></station><station><id>274</id><name>Warwick Road, Olympia</name><terminalName>001134</terminalName><lat>51.49671237</lat><long>-0.20528437</long><installed>true</installed><locked>false</locked><installDate>1279721580000</installDate><removalDate></removalDate><temporary>false</temporary><nbBikes>3</nbBikes><nbEmptyDocks>30</nbEmptyDocks><nbDocks>36</nbDocks></station><station><id>275</id><name>Barbican Centre, Barbican</name><terminalName>001191</terminalName><lat>51.52004497</lat><long>-0.092176447</long><installed>true</installed><locked>false</locked><installDate>1279721880000</installDate><removalDate></removalDate><temporary>false</temporary><nbBikes>2</nbBikes><nbEmptyDocks>17</nbEmptyDocks><nbDocks>19</nbDocks></station><station><id>276</id><name>Lower Thames Street, Monument</name><terminalName>001098</terminalName><lat>51.50930161</lat><long>-0.084985356</long><installed>true</installed><locked>false</locked><installDate>1279723200000</installDate><removalDate></removalDate><temporary>false</temporary><nbBikes>0</nbBikes><nbEmptyDocks>24</nbEmptyDocks><nbDocks>24</nbDocks></station><station><id>277</id><name>Kensington Church Street, Kensington</name><terminalName>001143</terminalName><lat>51.50315739</lat><long>-0.191496313</long><installed>true</installed><locked>false</locked><installDate>1279723320000</installDate><removalDate></removalDate><temporary>false</temporary><nbBikes>11</nbBikes><nbEmptyDocks>6</nbEmptyDocks><nbDocks>17</nbDocks></station><station><id>278</id><name>Tooley Street, Bermondsey</name><terminalName>001142</terminalName><lat>51.5034938</lat><long>-0.07962099</long><installed>true</installed><locked>false</locked><installDate>1279723500000</installDate><removalDate></removalDate><temporary>false</temporary><nbBikes>22</nbBikes><nbEmptyDocks>4</nbEmptyDocks><nbDocks>27</nbDocks></station><station><id>279</id><name>North Wharf Road, Paddington</name><terminalName>001108</terminalName><lat>51.51862243</lat><long>-0.176645823</long><installed>true</installed><locked>false</locked><installDate>1279723740000</installDate><removalDate></removalDate><temporary>false</temporary><nbBikes>9</nbBikes><nbEmptyDocks>16</nbEmptyDocks><nbDocks>25</nbDocks></station><station><id>280</id><name>Royal Avenue 2, Chelsea</name><terminalName>003462</terminalName><lat>51.490083</lat><long>-0.162418</long><installed>true</installed><locked>false</locked><installDate>1279726440000</installDate><removalDate></removalDate><temporary>false</temporary><nbBikes>10</nbBikes><nbEmptyDocks>0</nbEmptyDocks><nbDocks>10</nbDocks></station><station><id>281</id><name>Smith Square, Westminster</name><terminalName>003480</terminalName><lat>51.49580589</lat><long>-0.127575233</long><installed>true</installed><locked>false</locked><installDate>1279726620000</installDate><removalDate></removalDate><temporary>false</temporary><nbBikes>15</nbBikes><nbEmptyDocks>3</nbEmptyDocks><nbDocks>18</nbDocks></station><station><id>282</id><name>Royal London Hospital, Whitechapel</name><terminalName>001077</terminalName><lat>51.51906446</lat><long>-0.059642081</long><installed>true</installed><locked>false</locked><installDate>1279726980000</installDate><removalDate></removalDate><temporary>false</temporary><nbBikes>20</nbBikes><nbEmptyDocks>22</nbEmptyDocks><nbDocks>42</nbDocks></station><station><id>283</id><name>Kingsway, Covent Garden</name><terminalName>001141</terminalName><lat>51.51440928</lat><long>-0.118478757</long><installed>true</installed><locked>false</locked><installDate>1279727220000</installDate><removalDate></removalDate><temporary>false</temporary><nbBikes>3</nbBikes><nbEmptyDocks>13</nbEmptyDocks><nbDocks>16</nbDocks></station><station><id>284</id><name>Lambeth North Station, Waterloo</name><terminalName>001117</terminalName><lat>51.49914063</lat><long>-0.112031483</long><installed>true</installed><locked>false</locked><installDate>1279727580000</installDate><removalDate